{"type":"FeatureCollection","crs":{"type":"name","properties":{"name":"EPSG:4326"}},"features":[{"type":"Feature","id":0,"geometry":{"type":"Point","coordinates":[-76.989979459002157,38.888373396148666]},"properties":{"FID":0,"OBJECTID":1,"WEB_URL":" ","PHONE":"202-543-1020","ZIP":"20003","ADDRESS":"134 12TH STREET SE","NUMROOMS":"5","NAME":"A CAPITOL PLACE","X":400869.56,"Y":135613.84,"ADDRID":66757,"myHotelId":"0","h_d5m_ID":"134","h_d10m_ID":"134","h_w5m_ID":"134","h_w10m_ID":"134","h_w15m_ID":"134","h_w20m_ID":"134","h_w30m_ID":"134"}},{"type":"Feature","id":1,"geometry":{"type":"Point","coordinates":[-77.041600298364557,38.92454512414335]},"properties":{"FID":1,"OBJECTID":2,"WEB_URL":"http://adamsinn.com/","PHONE":"202-745-3600","ZIP":"20009","ADDRESS":"1746 LANIER PLACE NW","NUMROOMS":"26","NAME":"ADAMS INN","X":396392.87,"Y":139629.97,"ADDRID":307146,"myHotelId":"1","h_d5m_ID":"120","h_d10m_ID":"120","h_w5m_ID":"120","h_w10m_ID":"120","h_w15m_ID":"120","h_w20m_ID":"120","h_w30m_ID":"120"}},{"type":"Feature","id":2,"geometry":{"type":"Point","coordinates":[-77.040294345526547,38.899966413085174]},"properties":{"FID":2,"OBJECTID":3,"WEB_URL":"http://www.stayaka.com/locations/white_house/default.aspx","PHONE":"202-904-2500","ZIP":"20006","ADDRESS":"1710 H STREET NW","NUMROOMS":"142","NAME":"AKA WHITE HOUSE","X":396504.90999999997,"Y":136901.48000000001,"ADDRID":218432,"myHotelId":"2","h_d5m_ID":"7","h_d10m_ID":"7","h_w5m_ID":"7","h_w10m_ID":"7","h_w15m_ID":"7","h_w20m_ID":"7","h_w30m_ID":"7"}},{"type":"Feature","id":3,"geometry":{"type":"Point","coordinates":[-77.049665393076026,38.897168230189614]},"properties":{"FID":3,"OBJECTID":4,"WEB_URL":"http://the-allen-lee-hotel.hotel-washington-dc.net/en/","PHONE":"202-331-1224","ZIP":"20037","ADDRESS":"2224 F STREET NW","NUMROOMS":"50","NAME":"ALLEN LEE HOTEL","X":395691.85999999999,"Y":136591.26000000001,"ADDRID":242724,"myHotelId":"3","h_d5m_ID":"16","h_d10m_ID":"16","h_w5m_ID":"15","h_w10m_ID":"15","h_w15m_ID":"15","h_w20m_ID":"15","h_w30m_ID":"15"}},{"type":"Feature","id":4,"geometry":{"type":"Point","coordinates":[-77.045945141168104,38.91771986934112]},"properties":{"FID":4,"OBJECTID":5,"WEB_URL":"http://www.americanguesthouse.com/","PHONE":"202-588-1180","ZIP":"20009","ADDRESS":"2005 COLUMBIA ROAD NW","NUMROOMS":"12","NAME":"AMERICAN GUEST HOUSE","X":396015.72999999998,"Y":138872.48999999999,"ADDRID":235122,"myHotelId":"4","h_d5m_ID":"23","h_d10m_ID":"23","h_w5m_ID":"21","h_w10m_ID":"21","h_w15m_ID":"21","h_w20m_ID":"21","h_w30m_ID":"21"}},{"type":"Feature","id":5,"geometry":{"type":"Point","coordinates":[-77.028405147757255,38.929923707957933]},"properties":{"FID":5,"OBJECTID":6,"WEB_URL":" ","PHONE":"202-570-3440","ZIP":"20010","ADDRESS":"1207 KENYON STREET NW","NUMROOMS":"6","NAME":"ASANTE SANA GUEST QUARTERS","X":397537.26000000001,"Y":140226.60000000001,"ADDRID":231121,"myHotelId":"5","h_d5m_ID":"28","h_d10m_ID":"28","h_w5m_ID":"26","h_w10m_ID":"26","h_w15m_ID":"26","h_w20m_ID":"26","h_w30m_ID":"26"}},{"type":"Feature","id":6,"geometry":{"type":"Point","coordinates":[-77.053672313588734,38.903441412135855]},"properties":{"FID":6,"OBJECTID":7,"WEB_URL":"http://www.avenuesuites.com/","PHONE":"202-333-8060","ZIP":"20037","ADDRESS":"2500 PENNSYLVANIA AVENUE NW","NUMROOMS":"124","NAME":"AVENUE SUITES HOTEL","X":395344.67999999999,"Y":137287.82999999999,"ADDRID":273885,"myHotelId":"6","h_d5m_ID":"60","h_d10m_ID":"60","h_w5m_ID":"60","h_w10m_ID":"60","h_w15m_ID":"60","h_w20m_ID":"60","h_w30m_ID":"60"}},{"type":"Feature","id":7,"geometry":{"type":"Point","coordinates":[-77.038051975223496,38.90705674072143]},"properties":{"FID":7,"OBJECTID":8,"WEB_URL":"http://www.beaconhotelwdc.com/","PHONE":"202-296-2100","ZIP":"20036","ADDRESS":"1615 RHODE ISLAND AVENUE NW","NUMROOMS":"60","NAME":"BEACON HOTEL AND CORPORATE QUARTERS","X":396699.75,"Y":137688.48000000001,"ADDRID":279263,"myHotelId":"7","h_d5m_ID":"95","h_d10m_ID":"95","h_w5m_ID":"95","h_w10m_ID":"95","h_w15m_ID":"95","h_w20m_ID":"95","h_w30m_ID":"95"}},{"type":"Feature","id":8,"geometry":{"type":"Point","coordinates":[-77.047954060067198,38.904310773327552]},"properties":{"FID":8,"OBJECTID":9,"WEB_URL":"http://www.georgetowndchotel.com/","PHONE":"202-457-0565","ZIP":"20037","ADDRESS":"1121 NEW HAMPSHIRE AVENUE NW","NUMROOMS":"76","NAME":"BEST WESTERN GEORGETOWN HOTEL & SUITES","X":395840.72999999998,"Y":137384.06,"ADDRID":242738,"myHotelId":"8","h_d5m_ID":"9","h_d10m_ID":"9","h_w5m_ID":"9","h_w10m_ID":"9","h_w15m_ID":"9","h_w20m_ID":"9","h_w30m_ID":"9"}},{"type":"Feature","id":9,"geometry":{"type":"Point","coordinates":[-77.033375297294938,38.899840856239557]},"properties":{"FID":9,"OBJECTID":10,"WEB_URL":"http://www.bridgestreet.com/Woodward_Building.htm","PHONE":"1-800-278-7338","ZIP":"20005","ADDRESS":"733 15TH STREET NW","NUMROOMS":" ","NAME":"BRIDGE STREET AT WOODWARD BUILDING","X":397105.09000000003,"Y":136887.29999999999,"ADDRID":279921,"myHotelId":"9","h_d5m_ID":"38","h_d10m_ID":"38","h_w5m_ID":"37","h_w10m_ID":"37","h_w15m_ID":"37","h_w20m_ID":"37","h_w30m_ID":"37"}},{"type":"Feature","id":10,"geometry":{"type":"Point","coordinates":[-76.980473456147138,38.916662666816357]},"properties":{"FID":10,"OBJECTID":11,"WEB_URL":" ","PHONE":"202-529-3900","ZIP":"20002","ADDRESS":"1615 NEW YORK AVENUE NE","NUMROOMS":"58","NAME":"BUDGET MOTOR INN","X":401693.60999999999,"Y":138754.31,"ADDRID":286348,"myHotelId":"10","h_d5m_ID":"141","h_d10m_ID":"141","h_w5m_ID":"141","h_w10m_ID":"141","h_w15m_ID":"141","h_w20m_ID":"141","h_w30m_ID":"141"}},{"type":"Feature","id":11,"geometry":{"type":"Point","coordinates":[-77.061458274139781,38.903996093723478]},"properties":{"FID":11,"OBJECTID":12,"WEB_URL":"http://www.capellahotels.com/washingtondc/georgetown/","PHONE":"202-617-2400","ZIP":"20007","ADDRESS":"1050 31ST STREET NW","NUMROOMS":"61","NAME":"CAPELLA","X":394669.37,"Y":137349.82999999999,"ADDRID":273780,"myHotelId":"11","h_d5m_ID":"56","h_d10m_ID":"56","h_w5m_ID":"54","h_w10m_ID":"54","h_w15m_ID":"54","h_w20m_ID":"54","h_w30m_ID":"54"}},{"type":"Feature","id":12,"geometry":{"type":"Point","coordinates":[-77.035935055127439,38.903129679160699]},"properties":{"FID":12,"OBJECTID":13,"WEB_URL":"http://www3.hilton.com/en/hotels/district-of-columbia/capital-hilton-DCASHHH/index.html","PHONE":"202-393-1000","ZIP":"20036","ADDRESS":"1001 16TH STREET NW","NUMROOMS":"544","NAME":"CAPITAL HILTON","X":396883.19,"Y":137252.47,"ADDRID":278775,"myHotelId":"12","h_d5m_ID":"89","h_d10m_ID":"89","h_w5m_ID":"89","h_w10m_ID":"89","h_w15m_ID":"89","h_w20m_ID":"89","h_w30m_ID":"89"}},{"type":"Feature","id":13,"geometry":{"type":"Point","coordinates":[-77.024367737181407,38.883909071280094]},"properties":{"FID":13,"OBJECTID":14,"WEB_URL":"http://www.lenfantplazahotel.com/","PHONE":"202-484-1000","ZIP":"20024","ADDRESS":"480 L'ENFANT PLAZA SW","NUMROOMS":"372","NAME":"L'ENFANT PLAZA HOTEL","X":397885.96999999997,"Y":135118.5,"ADDRID":302307,"myHotelId":"13","h_d5m_ID":"17","h_d10m_ID":"17","h_w5m_ID":"33","h_w10m_ID":"33","h_w15m_ID":"33","h_w20m_ID":"33","h_w30m_ID":"33"}},{"type":"Feature","id":14,"geometry":{"type":"Point","coordinates":[-77.015434475301618,38.901474486919064]},"properties":{"FID":14,"OBJECTID":15,"WEB_URL":"http://www.capitalhostels.com/","PHONE":"202-450-3450","ZIP":"20001","ADDRESS":"301 I STREET NW","NUMROOMS":" ","NAME":"CAPITAL VIEW HOSTEL","X":398661.38,"Y":137068.23000000001,"ADDRID":289320,"myHotelId":"14","h_d5m_ID":"135","h_d10m_ID":"135","h_w5m_ID":"135","h_w10m_ID":"135","h_w15m_ID":"135","h_w20m_ID":"135","h_w30m_ID":"135"}},{"type":"Feature","id":15,"geometry":{"type":"Point","coordinates":[-77.00307660514332,38.886239159367285]},"properties":{"FID":15,"OBJECTID":16,"WEB_URL":"http://capitolhillhotel-dc.com/","PHONE":"202-543-6000","ZIP":"20003","ADDRESS":"200 C STREET SE","NUMROOMS":"152","NAME":"CAPITOL HILL HOTEL","X":399733.27000000002,"Y":135376.88,"ADDRID":278017,"myHotelId":"15","h_d5m_ID":"126","h_d10m_ID":"126","h_w5m_ID":"126","h_w10m_ID":"126","h_w15m_ID":"126","h_w20m_ID":"126","h_w30m_ID":"126"}},{"type":"Feature","id":16,"geometry":{"type":"Point","coordinates":[-77.009732446939978,38.879032804610326]},"properties":{"FID":16,"OBJECTID":17,"WEB_URL":"http://www.capitolskyline.com/","PHONE":"202-488-7500","ZIP":"20024","ADDRESS":"10 I STREET SW","NUMROOMS":"203","NAME":"CAPITOL SKYLINE HOTEL","X":399155.71999999997,"Y":134576.95999999999,"ADDRID":276385,"myHotelId":"16","h_d5m_ID":"125","h_d10m_ID":"125","h_w5m_ID":"125","h_w10m_ID":"125","h_w15m_ID":"125","h_w20m_ID":"125","h_w30m_ID":"125"}},{"type":"Feature","id":17,"geometry":{"type":"Point","coordinates":[-77.03947333456739,38.913347426698209]},"properties":{"FID":17,"OBJECTID":18,"WEB_URL":"http://www.carlylesuites.com/","PHONE":"202-234-3200","ZIP":"20009","ADDRESS":"1731 NEW HAMPSHIRE AVENUE NW","NUMROOMS":"170","NAME":"CARLYLE SUITES HOTEL","X":396576.77000000002,"Y":138386.85000000001,"ADDRID":241652,"myHotelId":"17","h_d5m_ID":"111","h_d10m_ID":"111","h_w5m_ID":"111","h_w10m_ID":"111","h_w15m_ID":"111","h_w20m_ID":"111","h_w30m_ID":"111"}},{"type":"Feature","id":18,"geometry":{"type":"Point","coordinates":[-77.022830060601734,38.877639631886375]},"properties":{"FID":18,"OBJECTID":19,"WEB_URL":"http://channel-inn.hotel-washington-dc.net/en/","PHONE":"202-554-2400","ZIP":"20024","ADDRESS":"650 WATER STREET SW","NUMROOMS":"100","NAME":"CHANNEL INN HOTEL","X":398019.21000000002,"Y":134422.51000000001,"ADDRID":276710,"myHotelId":"18","h_d5m_ID":"30","h_d10m_ID":"30","h_w5m_ID":"28","h_w10m_ID":"28","h_w15m_ID":"28","h_w20m_ID":"28","h_w30m_ID":"28"}},{"type":"Feature","id":19,"geometry":{"type":"Point","coordinates":[-77.046962798688654,38.916381907393337]},"properties":{"FID":19,"OBJECTID":20,"WEB_URL":"http://www.thechurchillhotel.com/","PHONE":"202-797-2000","ZIP":"20009","ADDRESS":"1914 CONNECTICUT AVENUE NW","NUMROOMS":"173","NAME":"CHURCHILL EMBASSY ROW","X":395927.40000000002,"Y":138724.01000000001,"ADDRID":235060,"myHotelId":"19","h_d5m_ID":"81","h_d10m_ID":"81","h_w5m_ID":"81","h_w10m_ID":"81","h_w15m_ID":"81","h_w20m_ID":"81","h_w30m_ID":"81"}},{"type":"Feature","id":20,"geometry":{"type":"Point","coordinates":[-77.03924266675341,38.901083357366673]},"properties":{"FID":20,"OBJECTID":21,"WEB_URL":"http://www.clubquarters.com/loc_washingtonDC.php","PHONE":"202-463-6400","ZIP":"20006","ADDRESS":"839 17TH STREET NW","NUMROOMS":"185","NAME":"CLUB QUARTERS","X":396596.19,"Y":137025.42999999999,"ADDRID":218777,"myHotelId":"20","h_d5m_ID":"85","h_d10m_ID":"85","h_w5m_ID":"85","h_w10m_ID":"85","h_w15m_ID":"85","h_w20m_ID":"85","h_w30m_ID":"85"}},{"type":"Feature","id":21,"geometry":{"type":"Point","coordinates":[-76.979973837169297,38.917432614539159]},"properties":{"FID":21,"OBJECTID":22,"WEB_URL":"http://www.comfortinn.com/hotel-washington-district_of_columbia-DC012?listpos=2","PHONE":"202-832-3200","ZIP":"20002","ADDRESS":"1600 NEW YORK AVENUE NE","NUMROOMS":"134","NAME":"COMFORT INN  & SUITES NEW YORK AVE","X":401736.91999999998,"Y":138839.79000000001,"ADDRID":60554,"myHotelId":"21","h_d5m_ID":"142","h_d10m_ID":"142","h_w5m_ID":"142","h_w10m_ID":"142","h_w15m_ID":"142","h_w20m_ID":"142","h_w30m_ID":"142"}},{"type":"Feature","id":22,"geometry":{"type":"Point","coordinates":[-77.029351697592531,38.905912487530685]},"properties":{"FID":22,"OBJECTID":23,"WEB_URL":"http://www.comfortinn.com/hotel-washington-district_of_columbia-DC601?listpos=1","PHONE":"202-682-5300","ZIP":"20005","ADDRESS":"1201 13TH STREET NW","NUMROOMS":"100","NAME":"COMFORT INN DOWNTOWN DC/CONVENTION CENTER WASHINGTON","X":397454.33000000002,"Y":137561.17999999999,"ADDRID":240912,"myHotelId":"22","h_d5m_ID":"104","h_d10m_ID":"104","h_w5m_ID":"104","h_w10m_ID":"104","h_w15m_ID":"104","h_w20m_ID":"104","h_w30m_ID":"104"}},{"type":"Feature","id":23,"geometry":{"type":"Point","coordinates":[-77.024328544319303,38.897073739692445]},"properties":{"FID":23,"OBJECTID":24,"WEB_URL":"http://www.marriott.com/hotels/travel/wascn-courtyard-washington-convention-center/","PHONE":"202-638-4600","ZIP":"20004","ADDRESS":"900 F STREET NW","NUMROOMS":"188","NAME":"COURTYARD - CONVENTION CENTER","X":397889.76000000001,"Y":136579.88,"ADDRID":243269,"myHotelId":"23","h_d5m_ID":"48","h_d10m_ID":"48","h_w5m_ID":"47","h_w10m_ID":"47","h_w15m_ID":"47","h_w20m_ID":"47","h_w30m_ID":"47"}},{"type":"Feature","id":24,"geometry":{"type":"Point","coordinates":[-77.046874822026908,38.916036653240539]},"properties":{"FID":24,"OBJECTID":25,"WEB_URL":"http://www.marriott.com/hotels/travel/wasnw-courtyard-washington-dc-dupont-circle/","PHONE":"202-332-9300","ZIP":"20009","ADDRESS":"1900 CONNECTICUT AVENUE NW","NUMROOMS":"147","NAME":"COURTYARD - DUPONT CIRCLE","X":395935.01000000001,"Y":138685.67999999999,"ADDRID":235054,"myHotelId":"24","h_d5m_ID":"82","h_d10m_ID":"82","h_w5m_ID":"82","h_w10m_ID":"82","h_w15m_ID":"82","h_w20m_ID":"82","h_w30m_ID":"82"}},{"type":"Feature","id":25,"geometry":{"type":"Point","coordinates":[-77.036973668520702,38.906673961835473]},"properties":{"FID":25,"OBJECTID":26,"WEB_URL":"http://www.marriott.com/hotels/travel/wasem-courtyard-washington-embassy-row/","PHONE":"202-293-8000","ZIP":"20036","ADDRESS":"1600 RHODE ISLAND AVENUE NW","NUMROOMS":"158","NAME":"COURTYARD - EMBASSY ROW","X":396793.26000000001,"Y":137645.95000000001,"ADDRID":242882,"myHotelId":"25","h_d5m_ID":"97","h_d10m_ID":"97","h_w5m_ID":"97","h_w10m_ID":"97","h_w15m_ID":"97","h_w20m_ID":"97","h_w30m_ID":"97"}},{"type":"Feature","id":26,"geometry":{"type":"Point","coordinates":[-77.044690192355304,38.896521907394607]},"properties":{"FID":26,"OBJECTID":27,"WEB_URL":"http://www.marriott.com/hotels/travel/wasfb-courtyard-washington-dc-foggy-bottom/","PHONE":"202-296-5700","ZIP":"20006","ADDRESS":"515 20TH STREET NW","NUMROOMS":"149","NAME":"COURTYARD - FOGGY BOTTOM","X":396123.40999999997,"Y":136519.29000000001,"ADDRID":279821,"myHotelId":"26","h_d5m_ID":"33","h_d10m_ID":"33","h_w5m_ID":"31","h_w10m_ID":"31","h_w15m_ID":"31","h_w20m_ID":"31","h_w30m_ID":"31"}},{"type":"Feature","id":27,"geometry":{"type":"Point","coordinates":[-77.003165966875855,38.907804011792059]},"properties":{"FID":27,"OBJECTID":28,"WEB_URL":"http://www.marriott.com/hotels/travel/wasus-courtyard-washington-dc-us-capitol/","PHONE":"202-898-4000","ZIP":"20002","ADDRESS":"1325 2ND STREET NE","NUMROOMS":"218","NAME":"COURTYARD - US CAPITOL","X":399725.59999999998,"Y":137770.75,"ADDRID":304846,"myHotelId":"27","h_d5m_ID":"137","h_d10m_ID":"137","h_w5m_ID":"137","h_w10m_ID":"137","h_w15m_ID":"137","h_w20m_ID":"137","h_w30m_ID":"137"}},{"type":"Feature","id":28,"geometry":{"type":"Point","coordinates":[-77.003963170012099,38.877711701590805]},"properties":{"FID":28,"OBJECTID":29,"WEB_URL":"http://www.marriott.com/hotels/travel/wasny-courtyard-washington-capitol-hill-navy-yard/","PHONE":"202-497-6766","ZIP":"20003","ADDRESS":"140 L STREET SE","NUMROOMS":"204","NAME":"COUTRYARD - CAPITOL HILL NAVY YARD","X":399656.31,"Y":134430.26999999999,"ADDRID":299775,"myHotelId":"28","h_d5m_ID":"123","h_d10m_ID":"123","h_w5m_ID":"123","h_w10m_ID":"123","h_w15m_ID":"123","h_w20m_ID":"123","h_w30m_ID":"123"}},{"type":"Feature","id":29,"geometry":{"type":"Point","coordinates":[-77.065608860814834,38.946957038904564]},"properties":{"FID":29,"OBJECTID":30,"WEB_URL":"http://www.dcdaysinn.com/","PHONE":"202-244-5600","ZIP":"20008","ADDRESS":"4400 CONNECTICUT AVENUE NW","NUMROOMS":"155","NAME":"DAYS INN CONNECTICUT AVE","X":394312.78000000003,"Y":142119.10999999999,"ADDRID":222132,"myHotelId":"29","h_d5m_ID":"121","h_d10m_ID":"121","h_w5m_ID":"121","h_w10m_ID":"121","h_w15m_ID":"121","h_w20m_ID":"121","h_w30m_ID":"121"}},{"type":"Feature","id":30,"geometry":{"type":"Point","coordinates":[-76.970601778384136,38.917984645093028]},"properties":{"FID":30,"OBJECTID":31,"WEB_URL":"http://www.daysinn.com/hotels/district-of-columbia/washington/days-inn-washington-dc-gateway/hotel-overview","PHONE":"202-832-5800","ZIP":"20002","ADDRESS":"2700 NEW YORK AVENUE NE","NUMROOMS":"195","NAME":"DAYS INN GATEWAY","X":402549.66999999998,"Y":138901.29000000001,"ADDRID":287175,"myHotelId":"30","h_d5m_ID":"2","h_d10m_ID":"2","h_w5m_ID":"1","h_w10m_ID":"1","h_w15m_ID":"1","h_w20m_ID":"1","h_w30m_ID":"1"}},{"type":"Feature","id":31,"geometry":{"type":"Point","coordinates":[-77.026745628822255,38.908320324278257]},"properties":{"FID":31,"OBJECTID":32,"WEB_URL":"http://www.capitalhostels.com/","PHONE":"202-506-7106","ZIP":"20001","ADDRESS":"1333 11TH STREET NW","NUMROOMS":" ","NAME":"DC LOFTY HOSTEL","X":397680.45000000001,"Y":137828.39999999999,"ADDRID":239320,"myHotelId":"31","h_d5m_ID":"110","h_d10m_ID":"110","h_w5m_ID":"110","h_w10m_ID":"110","h_w15m_ID":"110","h_w20m_ID":"110","h_w30m_ID":"110"}},{"type":"Feature","id":32,"geometry":{"type":"Point","coordinates":[-77.033242488385156,38.907994535970055]},"properties":{"FID":32,"OBJECTID":33,"WEB_URL":"http://www.districthotel.com/","PHONE":"202-232-7800","ZIP":"20005","ADDRESS":"1440 RHODE ISLAND AVENUE NW","NUMROOMS":"58","NAME":"DISTRICT HOTEL","X":397116.94,"Y":137792.42000000001,"ADDRID":218282,"myHotelId":"32","h_d5m_ID":"99","h_d10m_ID":"99","h_w5m_ID":"100","h_w10m_ID":"100","h_w15m_ID":"100","h_w20m_ID":"100","h_w30m_ID":"100"}},{"type":"Feature","id":33,"geometry":{"type":"Point","coordinates":[-77.031570468014294,38.905097734164343]},"properties":{"FID":33,"OBJECTID":34,"WEB_URL":"http://www.donovanhousehotel.com/","PHONE":"202-737-1200","ZIP":"20005","ADDRESS":"1155 14TH STREET NW","NUMROOMS":"193","NAME":"DONOVAN HOUSE","X":397261.84999999998,"Y":137470.79999999999,"ADDRID":242940,"myHotelId":"33","h_d5m_ID":"92","h_d10m_ID":"92","h_w5m_ID":"92","h_w10m_ID":"92","h_w15m_ID":"92","h_w20m_ID":"92","h_w30m_ID":"92"}},{"type":"Feature","id":34,"geometry":{"type":"Point","coordinates":[-77.035509621433434,38.907943332057151]},"properties":{"FID":34,"OBJECTID":35,"WEB_URL":"http://doubletree3.hilton.com/en/hotels/district-of-columbia/doubletree-by-hilton-hotel-washington-dc-WASDTDT/index.html","PHONE":"202-232-7000","ZIP":"20005","ADDRESS":"1515 RHODE ISLAND AVENUE NW","NUMROOMS":"220","NAME":"DOUBLETREE HOTEL WASHINGTON","X":396920.29999999999,"Y":137786.81,"ADDRID":242312,"myHotelId":"34","h_d5m_ID":"101","h_d10m_ID":"101","h_w5m_ID":"101","h_w10m_ID":"101","h_w15m_ID":"101","h_w20m_ID":"101","h_w30m_ID":"101"}},{"type":"Feature","id":35,"geometry":{"type":"Point","coordinates":[-77.049811041089413,38.91243183282171]},"properties":{"FID":35,"OBJECTID":36,"WEB_URL":"http://www.dcinns.com/embassy.html","PHONE":"202-232-7744","ZIP":"20008","ADDRESS":"2224 R STREET NW","NUMROOMS":"11","NAME":"EMBASSY CIRCLE GUEST HOUSE","X":395680.15000000002,"Y":138285.64999999999,"ADDRID":234892,"myHotelId":"35","h_d5m_ID":"21","h_d10m_ID":"21","h_w5m_ID":"19","h_w10m_ID":"19","h_w15m_ID":"19","h_w20m_ID":"19","h_w30m_ID":"19"}},{"type":"Feature","id":36,"geometry":{"type":"Point","coordinates":[-77.045692400303679,38.910732290600052]},"properties":{"FID":36,"OBJECTID":37,"WEB_URL":"http://www.embassyrowhotel.com/","PHONE":"202-265-1600","ZIP":"20036","ADDRESS":"2015 MASSACHUSETTS AVENUE NW","NUMROOMS":"231","NAME":"EMBASSY ROW HOTEL","X":396037.26000000001,"Y":138096.79999999999,"ADDRID":225934,"myHotelId":"36","h_d5m_ID":"76","h_d10m_ID":"76","h_w5m_ID":"76","h_w10m_ID":"76","h_w15m_ID":"76","h_w20m_ID":"76","h_w30m_ID":"76"}},{"type":"Feature","id":37,"geometry":{"type":"Point","coordinates":[-77.08488478086376,38.960773771944815]},"properties":{"FID":37,"OBJECTID":38,"WEB_URL":"http://www.embassysuitesdcmetro.com/","PHONE":"202-362-9300","ZIP":"20015","ADDRESS":"4300 MILITARY ROAD NW","NUMROOMS":"198","NAME":"EMBASSY SUITES - CHEVY CHASE PAVILLION","X":392643.23999999999,"Y":143654.26999999999,"ADDRID":301908,"myHotelId":"37","h_d5m_ID":"15","h_d10m_ID":"15","h_w5m_ID":"14","h_w10m_ID":"14","h_w15m_ID":"14","h_w20m_ID":"14","h_w30m_ID":"14"}},{"type":"Feature","id":38,"geometry":{"type":"Point","coordinates":[-77.026206037845895,38.902021626480114]},"properties":{"FID":38,"OBJECTID":39,"WEB_URL":"http://embassysuites3.hilton.com/en/hotels/district-of-columbia/embassy-suites-washington-dc-convention-center-WASCCES/index.html","PHONE":"202-739-2001","ZIP":"20001","ADDRESS":"900 10TH STREET NW","NUMROOMS":"382","NAME":"EMBASSY SUITES - CONVENTION CENTER","X":397727.04999999999,"Y":137129.17999999999,"ADDRID":300519,"myHotelId":"38","h_d5m_ID":"13","h_d10m_ID":"13","h_w5m_ID":"12","h_w10m_ID":"12","h_w15m_ID":"12","h_w20m_ID":"12","h_w30m_ID":"12"}},{"type":"Feature","id":39,"geometry":{"type":"Point","coordinates":[-77.049447664053702,38.906856992130606]},"properties":{"FID":39,"OBJECTID":40,"WEB_URL":"http://embassysuites3.hilton.com/en/hotels/district-of-columbia/embassy-suites-washington-dc-WASDNES/index.html","PHONE":"202-857-3388","ZIP":"20037","ADDRESS":"1250 22ND STREET NW","NUMROOMS":"318","NAME":"EMBASSY SUITES - DOWNTOWN","X":395711.33000000002,"Y":137666.78,"ADDRID":242364,"myHotelId":"39","h_d5m_ID":"69","h_d10m_ID":"69","h_w5m_ID":"69","h_w10m_ID":"69","h_w15m_ID":"69","h_w20m_ID":"69","h_w30m_ID":"69"}},{"type":"Feature","id":40,"geometry":{"type":"Point","coordinates":[-77.045367231247369,38.907067821781574]},"properties":{"FID":40,"OBJECTID":41,"WEB_URL":"http://www.hotelscombined.com/Hotel/Marriott_Execustay_The_Flats_at_Dupont_Circle.htm","PHONE":"1-800-735-7829","ZIP":"20036","ADDRESS":"2000 N STREET NW","NUMROOMS":" ","NAME":"EXECUSTAY - THE FLATS AT DUPONT CIRCLE","X":396065.26000000001,"Y":137690,"ADDRID":242555,"myHotelId":"40","h_d5m_ID":"74","h_d10m_ID":"74","h_w5m_ID":"74","h_w10m_ID":"74","h_w15m_ID":"74","h_w20m_ID":"74","h_w30m_ID":"74"}},{"type":"Feature","id":41,"geometry":{"type":"Point","coordinates":[-77.019253010781071,38.899663870272065]},"properties":{"FID":41,"OBJECTID":42,"WEB_URL":"http://www.marriott.com/hotels/travel/wasfc-fairfield-inn-and-suites-washington-dc-downtown/","PHONE":"202-289-5959","ZIP":"20001","ADDRESS":"500 H STREET NW","NUMROOMS":"189","NAME":"FAIRFIELD INN AND SUITES - DOWNTOWN","X":398330.10999999999,"Y":136867.29999999999,"ADDRID":242981,"myHotelId":"41","h_d5m_ID":"128","h_d10m_ID":"128","h_w5m_ID":"128","h_w10m_ID":"128","h_w15m_ID":"128","h_w20m_ID":"128","h_w30m_ID":"128"}},{"type":"Feature","id":42,"geometry":{"type":"Point","coordinates":[-76.9714909372763,38.916841888197979]},"properties":{"FID":42,"OBJECTID":43,"WEB_URL":"http://www.marriott.com/hotels/travel/wasna-fairfield-inn-and-suites-washington-dc-new-york-avenue/","PHONE":"202-266-3000","ZIP":"20002","ADDRESS":"2305 NEW YORK AVENUE NE","NUMROOMS":"126","NAME":"FAIRFIELD INN AND SUITES - NEW YORK AVENUE","X":402472.59999999998,"Y":138774.41,"ADDRID":307042,"myHotelId":"42","h_d5m_ID":"4","h_d10m_ID":"4","h_w5m_ID":"3","h_w10m_ID":"3","h_w15m_ID":"3","h_w20m_ID":"3","h_w30m_ID":"3"}},{"type":"Feature","id":43,"geometry":{"type":"Point","coordinates":[-77.028465527004272,38.90292346484835]},"properties":{"FID":43,"OBJECTID":44,"WEB_URL":"http://www.fourpointsdc.com/","PHONE":"202-289-7600","ZIP":"20005","ADDRESS":"1201 K STREET NW","NUMROOMS":"265","NAME":"FOUR POINTS SHERATON","X":397531.09000000003,"Y":137229.35000000001,"ADDRID":243282,"myHotelId":"43","h_d5m_ID":"106","h_d10m_ID":"106","h_w5m_ID":"106","h_w10m_ID":"106","h_w15m_ID":"106","h_w20m_ID":"106","h_w30m_ID":"106"}},{"type":"Feature","id":44,"geometry":{"type":"Point","coordinates":[-77.057245968226255,38.904698903583032]},"properties":{"FID":44,"OBJECTID":45,"WEB_URL":"http://www.fourseasons.com/washington/","PHONE":"202-342-0444","ZIP":"20007","ADDRESS":"2800 PENNSYLVANIA AVENUE NW","NUMROOMS":"222","NAME":"FOUR SEASONS HOTEL","X":395034.78999999998,"Y":137427.60999999999,"ADDRID":279626,"myHotelId":"44","h_d5m_ID":"59","h_d10m_ID":"59","h_w5m_ID":"59","h_w10m_ID":"59","h_w15m_ID":"59","h_w20m_ID":"59","h_w30m_ID":"59"}},{"type":"Feature","id":45,"geometry":{"type":"Point","coordinates":[-76.994932003142438,38.905783462255691]},"properties":{"FID":45,"OBJECTID":46,"WEB_URL":"http://kelloggconferencehotel.com/index.php","PHONE":"202-651-6000","ZIP":"20002","ADDRESS":"800 FLORIDA AVENUE NE","NUMROOMS":"97","NAME":"GALLAUDET UNIVERSITY KELLOGG CONFERENCE","X":400439.78000000003,"Y":137546.45999999999,"ADDRID":288964,"myHotelId":"45","h_d5m_ID":"139","h_d10m_ID":"139","h_w5m_ID":"139","h_w10m_ID":"139","h_w15m_ID":"139","h_w20m_ID":"139","h_w30m_ID":"139"}},{"type":"Feature","id":46,"geometry":{"type":"Point","coordinates":[-77.052680776925115,38.900232995968494]},"properties":{"FID":46,"OBJECTID":47,"WEB_URL":"http://www.gwuinn.com/","PHONE":"202-337-6620","ZIP":"20037","ADDRESS":"824 NEW HAMPSHIRE AVENUE NW","NUMROOMS":"95","NAME":"GEORGE WASHINGTON UNIVERSITY INN","X":395430.47999999998,"Y":136931.62,"ADDRID":274009,"myHotelId":"46","h_d5m_ID":"6","h_d10m_ID":"6","h_w5m_ID":"4","h_w10m_ID":"4","h_w15m_ID":"4","h_w20m_ID":"4","h_w30m_ID":"4"}},{"type":"Feature","id":47,"geometry":{"type":"Point","coordinates":[-77.06778571375483,38.915467155812117]},"properties":{"FID":47,"OBJECTID":48,"WEB_URL":"http://www.georgetownhillinn.com/","PHONE":"202-298-6021","ZIP":"20007","ADDRESS":"1832 WISCONSIN AVENUE NW","NUMROOMS":"8","NAME":"GEORGETOWN HILL INN","X":394121.47999999998,"Y":138623.60000000001,"ADDRID":274540,"myHotelId":"47","h_d5m_ID":"51","h_d10m_ID":"51","h_w5m_ID":"50","h_w10m_ID":"50","h_w15m_ID":"50","h_w20m_ID":"50","h_w30m_ID":"50"}},{"type":"Feature","id":48,"geometry":{"type":"Point","coordinates":[-77.06356492457823,38.907213290829155]},"properties":{"FID":48,"OBJECTID":49,"WEB_URL":"http://www.georgetowninn.com/","PHONE":"202-333-8900","ZIP":"20007","ADDRESS":"1310 WISCONSIN AVENUE NW","NUMROOMS":"96","NAME":"GEORGETOWN INN","X":394486.89000000001,"Y":137707.09,"ADDRID":279035,"myHotelId":"48","h_d5m_ID":"49","h_d10m_ID":"49","h_w5m_ID":"48","h_w10m_ID":"48","h_w15m_ID":"48","h_w20m_ID":"48","h_w30m_ID":"48"}},{"type":"Feature","id":49,"geometry":{"type":"Point","coordinates":[-77.058359947281559,38.902929741892123]},"properties":{"FID":49,"OBJECTID":50,"WEB_URL":"http://www.georgetownsuites.com/","PHONE":"202-298-7800","ZIP":"20007","ADDRESS":"1000 29TH STREET NW","NUMROOMS":"222","NAME":"GEORGETOWN SUITES","X":394938.03999999998,"Y":137231.28,"ADDRID":276422,"myHotelId":"49","h_d5m_ID":"0","h_d10m_ID":"0","h_w5m_ID":"55","h_w10m_ID":"55","h_w15m_ID":"55","h_w20m_ID":"55","h_w30m_ID":"55"}},{"type":"Feature","id":50,"geometry":{"type":"Point","coordinates":[-77.075284264456457,38.912211004485869]},"properties":{"FID":50,"OBJECTID":51,"WEB_URL":"http://www.acc-guhotelandconferencecenter.com/","PHONE":"202-687-3200","ZIP":"20007","ADDRESS":"3800 RESERVOIR ROAD NW","NUMROOMS":"146","NAME":"GEORGETOWN UNIVERSITY HOTEL & CONFERENCE CENTER","X":393470.87,"Y":138262.64999999999,"ADDRID":291547,"myHotelId":"50","h_d5m_ID":"50","h_d10m_ID":"50","h_w5m_ID":"49","h_w10m_ID":"49","h_w15m_ID":"49","h_w20m_ID":"49","h_w30m_ID":"49"}},{"type":"Feature","id":51,"geometry":{"type":"Point","coordinates":[-77.058948061493879,38.904369162116417]},"properties":{"FID":51,"OBJECTID":52,"WEB_URL":"http://www.georgetownsuites.com/","PHONE":"202-298-7800","ZIP":"20007","ADDRESS":"1111 30TH STREET NW","NUMROOMS":"220","NAME":"GEORGETWON SUITES BUISNESS CENTER","X":394887.13,"Y":137391.10000000001,"ADDRID":294968,"myHotelId":"51","h_d5m_ID":"55","h_d10m_ID":"55","h_w5m_ID":"56","h_w10m_ID":"56","h_w15m_ID":"56","h_w20m_ID":"56","h_w30m_ID":"56"}},{"type":"Feature","id":52,"geometry":{"type":"Point","coordinates":[-77.026490029988167,38.89934806147447]},"properties":{"FID":52,"OBJECTID":53,"WEB_URL":"http://grandwashington.hyatt.com/en/hotel/home.html","PHONE":"202-582-1234","ZIP":"20001","ADDRESS":"1000 H STREET NW","NUMROOMS":"897","NAME":"GRAND HYATT WASHINGTON","X":397702.33000000002,"Y":136832.39999999999,"ADDRID":239368,"myHotelId":"52","h_d5m_ID":"44","h_d10m_ID":"44","h_w5m_ID":"43","h_w10m_ID":"43","h_w15m_ID":"43","h_w20m_ID":"43","h_w30m_ID":"43"}},{"type":"Feature","id":53,"geometry":{"type":"Point","coordinates":[-77.031589797823258,38.902927346129076]},"properties":{"FID":53,"OBJECTID":54,"WEB_URL":"http://www.hamiltonhoteldc.com/","PHONE":"202-682-0111","ZIP":"20005","ADDRESS":"1001 14TH STREET NW","NUMROOMS":"301","NAME":"HAMILTON CROWNE PLAZA HOTEL","X":397260.09000000003,"Y":137229.87,"ADDRID":240644,"myHotelId":"53","h_d5m_ID":"12","h_d10m_ID":"12","h_w5m_ID":"11","h_w10m_ID":"11","h_w15m_ID":"11","h_w20m_ID":"11","h_w30m_ID":"11"}},{"type":"Feature","id":54,"geometry":{"type":"Point","coordinates":[-77.041109686982239,38.90048410975011]},"properties":{"FID":54,"OBJECTID":55,"WEB_URL":"http://hamptoninn3.hilton.com/en/hotels/district-of-columbia/hampton-inn-washington-dc-white-house-WASHSHX/index.html","PHONE":"202-296-1008","ZIP":"20006","ADDRESS":"1729 H STREET NW","NUMROOMS":"116","NAME":"HAMPTON INN WASHINGTON DC/WHITE HOUSE","X":396434.21000000002,"Y":136958.98000000001,"ADDRID":279355,"myHotelId":"54","h_d5m_ID":"8","h_d10m_ID":"8","h_w5m_ID":"6","h_w10m_ID":"6","h_w15m_ID":"6","h_w20m_ID":"6","h_w30m_ID":"6"}},{"type":"Feature","id":55,"geometry":{"type":"Point","coordinates":[-77.019652239012672,38.901787524500151]},"properties":{"FID":55,"OBJECTID":56,"WEB_URL":"http://hamptoninn3.hilton.com/en/hotels/district-of-columbia/hampton-inn-washington-downtown-convention-center-WASHHHX/index.html","PHONE":"202-842-4100","ZIP":"20001","ADDRESS":"901 6TH STREET NW","NUMROOMS":"228","NAME":"HAMPTON INN WASHINGTON DOWNTOWN CONVENTION CENTER","X":398295.53000000003,"Y":137103.04999999999,"ADDRID":300640,"myHotelId":"55","h_d5m_ID":"14","h_d10m_ID":"14","h_w5m_ID":"13","h_w10m_ID":"13","h_w15m_ID":"13","h_w20m_ID":"13","h_w30m_ID":"13"}},{"type":"Feature","id":56,"geometry":{"type":"Point","coordinates":[-77.036959072409218,38.900533060801237]},"properties":{"FID":56,"OBJECTID":57,"WEB_URL":"http://www.hayadams.com/","PHONE":"202-638-6600","ZIP":"20006","ADDRESS":"800 16TH STREET NW","NUMROOMS":"145","NAME":"HAY-ADAMS HOTEL","X":396794.25,"Y":136964.26000000001,"ADDRID":279937,"myHotelId":"56","h_d5m_ID":"36","h_d10m_ID":"36","h_w5m_ID":"35","h_w10m_ID":"35","h_w15m_ID":"35","h_w20m_ID":"35","h_w30m_ID":"35"}},{"type":"Feature","id":57,"geometry":{"type":"Point","coordinates":[-77.025710489248368,38.903154717589175]},"properties":{"FID":57,"OBJECTID":58,"WEB_URL":"http://www.henleypark.com/","PHONE":"202-638-5200","ZIP":"20001","ADDRESS":"926 MASSACHUSETTS AVENUE NW","NUMROOMS":"96","NAME":"HENLEY PARK HOTEL","X":397770.07000000001,"Y":137254.95000000001,"ADDRID":242922,"myHotelId":"57","h_d5m_ID":"103","h_d10m_ID":"103","h_w5m_ID":"103","h_w10m_ID":"103","h_w15m_ID":"103","h_w20m_ID":"103","h_w30m_ID":"103"}},{"type":"Feature","id":58,"geometry":{"type":"Point","coordinates":[-77.045239109721606,38.91647176997823]},"properties":{"FID":58,"OBJECTID":59,"WEB_URL":"http://www3.hilton.com/en/hotels/district-of-columbia/washington-hilton-DCAWHHH/index.html","PHONE":"202-483-3000","ZIP":"20009","ADDRESS":"1919 CONNECTICUT AVENUE NW","NUMROOMS":"1070","NAME":"HILTON - WASHINGTON DC","X":396076.89000000001,"Y":138733.91,"ADDRID":242829,"myHotelId":"58","h_d5m_ID":"22","h_d10m_ID":"22","h_w5m_ID":"20","h_w10m_ID":"20","h_w15m_ID":"20","h_w20m_ID":"20","h_w30m_ID":"20"}},{"type":"Feature","id":59,"geometry":{"type":"Point","coordinates":[-77.031736131793551,38.900674406233172]},"properties":{"FID":59,"OBJECTID":60,"WEB_URL":"http://hiltongardeninn3.hilton.com/en/hotels/district-of-columbia/hilton-garden-inn-washington-dc-downtown-DCACHGI/index.html","PHONE":"202-783-7800","ZIP":"20005","ADDRESS":"815 14TH STREET NW","NUMROOMS":"300","NAME":"HILTON GARDEN INN - DOWNTOWN","X":397247.31,"Y":136979.78,"ADDRID":279961,"myHotelId":"59","h_d5m_ID":"41","h_d10m_ID":"41","h_w5m_ID":"40","h_w10m_ID":"40","h_w15m_ID":"40","h_w20m_ID":"40","h_w30m_ID":"40"}},{"type":"Feature","id":60,"geometry":{"type":"Point","coordinates":[-77.005618623256652,38.906278715995889]},"properties":{"FID":60,"OBJECTID":61,"WEB_URL":"http://hiltongardeninn3.hilton.com/en/hotels/district-of-columbia/hilton-garden-inn-washington-dc-us-capitol-DCANMGI/index.html","PHONE":"202-408-4870","ZIP":"20002","ADDRESS":"1225 1ST STREET NE","NUMROOMS":"204","NAME":"HILTON GARDEN INN - US CAPITOL","X":399512.85999999999,"Y":137601.44,"ADDRID":307284,"myHotelId":"60","h_d5m_ID":"136","h_d10m_ID":"136","h_w5m_ID":"136","h_w10m_ID":"136","h_w15m_ID":"136","h_w20m_ID":"136","h_w30m_ID":"136"}},{"type":"Feature","id":61,"geometry":{"type":"Point","coordinates":[-76.972146039188132,38.916468650757395]},"properties":{"FID":61,"OBJECTID":62,"WEB_URL":"http://www.ihg.com/holidayinnexpress/hotels/us/en/washington/wasny/hoteldetail","PHONE":"202-266-9000","ZIP":"20002","ADDRESS":"1917 BLADENSBURG ROAD NE","NUMROOMS":"125","NAME":"HOLIDAY INN EXPRESS HOTEL & SUITES-NORTHEAST","X":402415.79999999999,"Y":138732.95999999999,"ADDRID":286535,"myHotelId":"61","h_d5m_ID":"3","h_d10m_ID":"3","h_w5m_ID":"2","h_w10m_ID":"2","h_w15m_ID":"2","h_w20m_ID":"2","h_w30m_ID":"2"}},{"type":"Feature","id":62,"geometry":{"type":"Point","coordinates":[-77.068397952927967,38.917468361179523]},"properties":{"FID":62,"OBJECTID":63,"WEB_URL":"http://www.ihg.com/holidayinn/hotels/us/en/washington/wasgt/hoteldetail","PHONE":"202-338-4600","ZIP":"20007","ADDRESS":"2101 WISCONSIN AVENUE NW","NUMROOMS":"285","NAME":"HOLIDAY INN GEORGETOWN","X":394068.54999999999,"Y":138845.79000000001,"ADDRID":279531,"myHotelId":"62","h_d5m_ID":"52","h_d10m_ID":"52","h_w5m_ID":"51","h_w10m_ID":"51","h_w15m_ID":"51","h_w20m_ID":"51","h_w30m_ID":"51"}},{"type":"Feature","id":63,"geometry":{"type":"Point","coordinates":[-77.019628773441283,38.885640834972563]},"properties":{"FID":63,"OBJECTID":64,"WEB_URL":"http://www.hicapitoldc.com/","PHONE":"202-479-4000","ZIP":"20024","ADDRESS":"550 C STREET SW","NUMROOMS":"532","NAME":"HOLIDAY INN WASHINGTON-CAPITOL","X":398297.17999999999,"Y":135310.64000000001,"ADDRID":276671,"myHotelId":"63","h_d5m_ID":"35","h_d10m_ID":"35","h_w5m_ID":"34","h_w10m_ID":"34","h_w15m_ID":"34","h_w20m_ID":"34","h_w30m_ID":"34"}},{"type":"Feature","id":64,"geometry":{"type":"Point","coordinates":[-77.034973127776482,38.908123480679471]},"properties":{"FID":64,"OBJECTID":65,"WEB_URL":"http://www.inndc.com/","PHONE":"202-483-2000","ZIP":"20005","ADDRESS":"1501 RHODE ISLAND AVENUE NW","NUMROOMS":"212","NAME":"HOLIDAY INN WASHINGTON-CENTRAL/WHITE HOUSE","X":396966.84000000003,"Y":137806.79000000001,"ADDRID":242311,"myHotelId":"64","h_d5m_ID":"26","h_d10m_ID":"26","h_w5m_ID":"24","h_w10m_ID":"24","h_w15m_ID":"24","h_w20m_ID":"24","h_w30m_ID":"24"}},{"type":"Feature","id":65,"geometry":{"type":"Point","coordinates":[-77.033584873746179,38.906684443937245]},"properties":{"FID":65,"OBJECTID":66,"WEB_URL":"http://homewoodsuites3.hilton.com/en/hotels/district-of-columbia/homewood-suites-by-hilton-washington-WASHWHW/index.html","PHONE":"202-265-8000","ZIP":"20005","ADDRESS":"1475 MASSACHUSETTS AVENUE NW","NUMROOMS":"175","NAME":"HOMEWOOD SUITES","X":397087.19,"Y":137647,"ADDRID":279197,"myHotelId":"65","h_d5m_ID":"90","h_d10m_ID":"90","h_w5m_ID":"90","h_w10m_ID":"90","h_w15m_ID":"90","h_w20m_ID":"90","h_w30m_ID":"90"}},{"type":"Feature","id":66,"geometry":{"type":"Point","coordinates":[-77.026757668056547,38.902918013086833]},"properties":{"FID":66,"OBJECTID":67,"WEB_URL":"http://www.hiusa.org/washingtondc/","PHONE":"202-737-2333","ZIP":"20001","ADDRESS":"1009 11TH STREET NW","NUMROOMS":"250","NAME":"HOSTELLING INTERNATIONAL","X":397679.22999999998,"Y":137228.70000000001,"ADDRID":239366,"myHotelId":"66","h_d5m_ID":"102","h_d10m_ID":"102","h_w5m_ID":"102","h_w10m_ID":"102","h_w15m_ID":"102","h_w20m_ID":"102","h_w30m_ID":"102"}},{"type":"Feature","id":67,"geometry":{"type":"Point","coordinates":[-77.009909806430358,38.896403378441363]},"properties":{"FID":67,"OBJECTID":68,"WEB_URL":"http://www.hotelgeorge.com/","PHONE":"202-347-4200","ZIP":"20001","ADDRESS":"15 E STREET NW","NUMROOMS":"139","NAME":"HOTEL GEORGE","X":399140.53999999998,"Y":136505.23000000001,"ADDRID":237159,"myHotelId":"67","h_d5m_ID":"131","h_d10m_ID":"131","h_w5m_ID":"131","h_w10m_ID":"131","h_w15m_ID":"131","h_w20m_ID":"131","h_w30m_ID":"131"}},{"type":"Feature","id":68,"geometry":{"type":"Point","coordinates":[-77.02730400412301,38.895971719219304]},"properties":{"FID":68,"OBJECTID":69,"WEB_URL":"http://www.hotel-harrington.com/","PHONE":"202-628-8140","ZIP":"20004","ADDRESS":"436 11TH STREET NW","NUMROOMS":"242","NAME":"HOTEL HARRINGTON","X":397631.60999999999,"Y":136457.62,"ADDRID":300863,"myHotelId":"68","h_d5m_ID":"46","h_d10m_ID":"46","h_w5m_ID":"45","h_w10m_ID":"45","h_w15m_ID":"45","h_w20m_ID":"45","h_w30m_ID":"45"}},{"type":"Feature","id":69,"geometry":{"type":"Point","coordinates":[-77.033007330217316,38.908088289462036]},"properties":{"FID":69,"OBJECTID":70,"WEB_URL":"http://www.hotelhelix.com/","PHONE":"202-462-9001","ZIP":"20005","ADDRESS":"1430 RHODE ISLAND AVENUE NW","NUMROOMS":"178","NAME":"HOTEL HELIX","X":397137.34000000003,"Y":137802.82000000001,"ADDRID":279165,"myHotelId":"69","h_d5m_ID":"100","h_d10m_ID":"100","h_w5m_ID":"99","h_w10m_ID":"99","h_w15m_ID":"99","h_w20m_ID":"99","h_w30m_ID":"99"}},{"type":"Feature","id":70,"geometry":{"type":"Point","coordinates":[-77.045920768641437,38.901538007303301]},"properties":{"FID":70,"OBJECTID":71,"WEB_URL":"http://www.hotellombardy.com/","PHONE":"202-828-2600","ZIP":"20006","ADDRESS":"2019 PENNSYLVANIA AVENUE NW","NUMROOMS":"140","NAME":"HOTEL LOMBARDY","X":396016.94,"Y":137076.17000000001,"ADDRID":307825,"myHotelId":"70","h_d5m_ID":"68","h_d10m_ID":"68","h_w5m_ID":"68","h_w10m_ID":"68","h_w15m_ID":"68","h_w20m_ID":"68","h_w30m_ID":"68"}},{"type":"Feature","id":71,"geometry":{"type":"Point","coordinates":[-77.045756137362446,38.907640511059029]},"properties":{"FID":71,"OBJECTID":72,"WEB_URL":"http://www.hotelmadera.com/","PHONE":"202-296-7600","ZIP":"20036","ADDRESS":"1310 NEW HAMPSHIRE AVENUE NW","NUMROOMS":"82","NAME":"HOTEL MADERA","X":396031.56,"Y":137753.59,"ADDRID":243325,"myHotelId":"71","h_d5m_ID":"75","h_d10m_ID":"75","h_w5m_ID":"75","h_w10m_ID":"75","h_w15m_ID":"75","h_w20m_ID":"75","h_w30m_ID":"75"}},{"type":"Feature","id":72,"geometry":{"type":"Point","coordinates":[-77.022465639941331,38.896996280560529]},"properties":{"FID":72,"OBJECTID":73,"WEB_URL":"http://www.monaco-dc.com/","PHONE":"202-628-7177","ZIP":"20004","ADDRESS":"700 F STREET NW","NUMROOMS":"183","NAME":"HOTEL MONACO","X":398051.35999999999,"Y":136571.23999999999,"ADDRID":301590,"myHotelId":"72","h_d5m_ID":"47","h_d10m_ID":"47","h_w5m_ID":"46","h_w10m_ID":"46","h_w15m_ID":"46","h_w20m_ID":"46","h_w30m_ID":"46"}},{"type":"Feature","id":73,"geometry":{"type":"Point","coordinates":[-77.047415403923438,38.909821040572758]},"properties":{"FID":73,"OBJECTID":74,"WEB_URL":"http://www.hotelpalomar-dc.com/","PHONE":"202-448-1800","ZIP":"20037","ADDRESS":"2121 P STREET NW","NUMROOMS":"335","NAME":"HOTEL PALOMAR","X":395887.77000000002,"Y":137995.72,"ADDRID":225942,"myHotelId":"73","h_d5m_ID":"72","h_d10m_ID":"72","h_w5m_ID":"72","h_w10m_ID":"72","h_w15m_ID":"72","h_w20m_ID":"72","h_w30m_ID":"72"}},{"type":"Feature","id":74,"geometry":{"type":"Point","coordinates":[-77.036132496079247,38.90827383752778]},"properties":{"FID":74,"OBJECTID":75,"WEB_URL":"http://www.rougehotel.com/","PHONE":"202-232-8000","ZIP":"20036","ADDRESS":"1315 16TH STREET NW","NUMROOMS":"137","NAME":"HOTEL ROUGE","X":396866.28999999998,"Y":137823.51999999999,"ADDRID":242317,"myHotelId":"74","h_d5m_ID":"96","h_d10m_ID":"96","h_w5m_ID":"96","h_w10m_ID":"96","h_w15m_ID":"96","h_w20m_ID":"96","h_w30m_ID":"96"}},{"type":"Feature","id":75,"geometry":{"type":"Point","coordinates":[-77.033990184539874,38.900513423315516]},"properties":{"FID":75,"OBJECTID":76,"WEB_URL":"http://www.sofitel.com/gb/hotel-3293-sofitel-washington-dc-lafayette-square/index.shtml","PHONE":"202-730-8800","ZIP":"20005","ADDRESS":"806 15TH STREET NW","NUMROOMS":"237","NAME":"HOTEL SOFITEL LAFAYETTE SQUARE","X":397051.78000000003,"Y":136961.98000000001,"ADDRID":279949,"myHotelId":"75","h_d5m_ID":"37","h_d10m_ID":"37","h_w5m_ID":"36","h_w10m_ID":"36","h_w15m_ID":"36","h_w20m_ID":"36","h_w30m_ID":"36"}},{"type":"Feature","id":76,"geometry":{"type":"Point","coordinates":[-76.995608705959441,38.912332286618124]},"properties":{"FID":76,"OBJECTID":77,"WEB_URL":"http://www.hojo.com/hotels/district-of-columbia/washington/howard-johnson-express-inn-washington-dc/hotel-overview","PHONE":"202-546-9200","ZIP":"20242","ADDRESS":"600 NEW YORK AVENUE NE","NUMROOMS":"53","NAME":"HOWARD JOHNSON INN","X":400381.04999999999,"Y":138273.42999999999,"ADDRID":288753,"myHotelId":"76","h_d5m_ID":"1","h_d10m_ID":"1","h_w5m_ID":"0","h_w10m_ID":"0","h_w15m_ID":"0","h_w20m_ID":"0","h_w30m_ID":"0"}},{"type":"Feature","id":77,"geometry":{"type":"Point","coordinates":[-77.011705639998539,38.895375447674958]},"properties":{"FID":77,"OBJECTID":78,"WEB_URL":"http://washingtonregency.hyatt.com/en/hotel/home.html","PHONE":"202-737-1234","ZIP":"20001","ADDRESS":"400 NEW JERSEY AVENUE NW","NUMROOMS":"836","NAME":"HYATT REGENCY WASHINGTON ON CAPITOL HILL","X":398984.73999999999,"Y":136391.14000000001,"ADDRID":279731,"myHotelId":"77","h_d5m_ID":"130","h_d10m_ID":"130","h_w5m_ID":"130","h_w10m_ID":"130","h_w15m_ID":"130","h_w20m_ID":"130","h_w30m_ID":"130"}},{"type":"Feature","id":78,"geometry":{"type":"Point","coordinates":[-76.999186802491153,38.887796566033593]},"properties":{"FID":78,"OBJECTID":79,"WEB_URL":"http://www.bedandbreakfastdc.com/IndependenceHouse-id-56.html","PHONE":"202-544-6011","ZIP":"20003","ADDRESS":"504 INDEPENDENCE AVENUE SE","NUMROOMS":" ","NAME":"INDEPENDENCE HOUSE BED & BREAKFAST","X":400070.75,"Y":135549.76000000001,"ADDRID":14495,"myHotelId":"78","h_d5m_ID":"127","h_d10m_ID":"127","h_w5m_ID":"127","h_w10m_ID":"127","h_w15m_ID":"127","h_w20m_ID":"127","h_w30m_ID":"127"}},{"type":"Feature","id":79,"geometry":{"type":"Point","coordinates":[-77.037506293086736,38.915390715236192]},"properties":{"FID":79,"OBJECTID":80,"WEB_URL":"http://www.thedupontcollection.com/dupontnorth.php","PHONE":"202-467-6777","ZIP":"20009","ADDRESS":"1620 T STREET NW","NUMROOMS":"8","NAME":"INN AT DUPONT CIRCLE (North)","X":396747.46000000002,"Y":138613.60000000001,"ADDRID":241881,"myHotelId":"79","h_d5m_ID":"113","h_d10m_ID":"113","h_w5m_ID":"113","h_w10m_ID":"113","h_w15m_ID":"113","h_w20m_ID":"113","h_w30m_ID":"113"}},{"type":"Feature","id":80,"geometry":{"type":"Point","coordinates":[-77.043696586715541,38.907749850118201]},"properties":{"FID":80,"OBJECTID":81,"WEB_URL":"http://www.thedupontcollection.com/dupontsouth.php","PHONE":"202-467-6777","ZIP":"20036","ADDRESS":"1312 19TH STREET NW","NUMROOMS":"8","NAME":"INN AT DUPONT CIRCLE (South)","X":396210.20000000001,"Y":137765.64000000001,"ADDRID":241066,"myHotelId":"80","h_d5m_ID":"79","h_d10m_ID":"79","h_w5m_ID":"79","h_w10m_ID":"79","h_w15m_ID":"79","h_w20m_ID":"79","h_w30m_ID":"79"}},{"type":"Feature","id":81,"geometry":{"type":"Point","coordinates":[-77.035390715544239,38.956430222101297]},"properties":{"FID":81,"OBJECTID":82,"WEB_URL":"http://intlguesthouse.mennonite.net/","PHONE":"202-726-5808","ZIP":"20011","ADDRESS":"1441 KENNEDY STREET NW","NUMROOMS":"12","NAME":"INTERNATIONAL GUEST HOUSE","X":396932.70000000001,"Y":143169.26999999999,"ADDRID":255891,"myHotelId":"81","h_d5m_ID":"122","h_d10m_ID":"122","h_w5m_ID":"122","h_w10m_ID":"122","h_w15m_ID":"122","h_w20m_ID":"122","h_w30m_ID":"122"}},{"type":"Feature","id":82,"geometry":{"type":"Point","coordinates":[-77.036958072529316,38.905945731691922]},"properties":{"FID":82,"OBJECTID":83,"WEB_URL":"http://www.jeffersondc.com/","PHONE":"202-448-2300","ZIP":"20036","ADDRESS":"1200 16TH STREET NW","NUMROOMS":"96","NAME":"JEFFERSON HOTEL","X":396794.58000000002,"Y":137565.10999999999,"ADDRID":242021,"myHotelId":"82","h_d5m_ID":"86","h_d10m_ID":"86","h_w5m_ID":"86","h_w10m_ID":"86","h_w15m_ID":"86","h_w20m_ID":"86","h_w30m_ID":"86"}},{"type":"Feature","id":83,"geometry":{"type":"Point","coordinates":[-77.031374096537888,38.896375172606731]},"properties":{"FID":83,"OBJECTID":84,"WEB_URL":"http://www.marriott.com/hotels/travel/wasjw-jw-marriott-washington-dc/","PHONE":"202-393-2000","ZIP":"20004","ADDRESS":"1331 PENNSYLVANIA AVENUE NW","NUMROOMS":"772","NAME":"JW MARRIOTT","X":397278.54999999999,"Y":136502.51999999999,"ADDRID":279081,"myHotelId":"83","h_d5m_ID":"40","h_d10m_ID":"40","h_w5m_ID":"39","h_w10m_ID":"39","h_w15m_ID":"39","h_w20m_ID":"39","h_w30m_ID":"39"}},{"type":"Feature","id":84,"geometry":{"type":"Point","coordinates":[-77.059464677039671,38.905067047781124]},"properties":{"FID":84,"OBJECTID":85,"WEB_URL":" ","PHONE":"202-726-5000","ZIP":"20007","ADDRESS":"3000 M STREET NW","NUMROOMS":" ","NAME":"LATHAM HOTEL","X":394842.37,"Y":137468.60000000001,"ADDRID":273857,"myHotelId":"84","h_d5m_ID":"54","h_d10m_ID":"54","h_w5m_ID":"53","h_w10m_ID":"53","h_w15m_ID":"53","h_w20m_ID":"53","h_w30m_ID":"53"}},{"type":"Feature","id":85,"geometry":{"type":"Point","coordinates":[-77.014900111884629,38.915724048744366]},"properties":{"FID":85,"OBJECTID":86,"WEB_URL":"http://www.ledroitparkrenaissancebedandbreakfast.com/","PHONE":"202-277-7847","ZIP":"20001","ADDRESS":"210 T STREET NW","NUMROOMS":"2","NAME":"LEDROIT PARK BED AND BREAKFEAST","X":398707.98999999999,"Y":138650.04000000001,"ADDRID":229977,"myHotelId":"85","h_d5m_ID":"138","h_d10m_ID":"138","h_w5m_ID":"138","h_w10m_ID":"138","h_w15m_ID":"138","h_w20m_ID":"138","h_w30m_ID":"138"}},{"type":"Feature","id":86,"geometry":{"type":"Point","coordinates":[-77.034062253018988,38.905376743560261]},"properties":{"FID":86,"OBJECTID":87,"WEB_URL":"http://www.loewshotels.com/Madison-Hotel","PHONE":"202-862-1600","ZIP":"20005","ADDRESS":"1177 15TH STREET NW","NUMROOMS":"365","NAME":"LOEWS MADISON HOTEL","X":397045.72999999998,"Y":137501.85000000001,"ADDRID":240251,"myHotelId":"86","h_d5m_ID":"24","h_d10m_ID":"24","h_w5m_ID":"22","h_w10m_ID":"22","h_w15m_ID":"22","h_w20m_ID":"22","h_w30m_ID":"22"}},{"type":"Feature","id":87,"geometry":{"type":"Point","coordinates":[-77.030451164614036,38.883609556027054]},"properties":{"FID":87,"OBJECTID":88,"WEB_URL":"http://www.mandarinoriental.com/washington/","PHONE":"202-554-8588","ZIP":"20024","ADDRESS":"1330 MARYLAND AVENUE SW","NUMROOMS":"400","NAME":"MANDARIN ORIENTAL","X":397358.14000000001,"Y":135085.41,"ADDRID":297583,"myHotelId":"87","h_d5m_ID":"34","h_d10m_ID":"34","h_w5m_ID":"32","h_w10m_ID":"32","h_w15m_ID":"32","h_w20m_ID":"32","h_w30m_ID":"32"}},{"type":"Feature","id":88,"geometry":{"type":"Point","coordinates":[-77.027787985561346,38.899368298989359]},"properties":{"FID":88,"OBJECTID":89,"WEB_URL":"http://www.marriott.com/hotels/travel/wasmc-washington-marriott-at-metro-center/","PHONE":"202-737-2200","ZIP":"20005","ADDRESS":"775 12TH STREET NW","NUMROOMS":"459","NAME":"MARRIOTT AT METRO CENTER","X":397589.73999999999,"Y":136834.67999999999,"ADDRID":239130,"myHotelId":"88","h_d5m_ID":"45","h_d10m_ID":"45","h_w5m_ID":"44","h_w10m_ID":"44","h_w15m_ID":"44","h_w20m_ID":"44","h_w30m_ID":"44"}},{"type":"Feature","id":89,"geometry":{"type":"Point","coordinates":[-77.052680298792922,38.903019732091437]},"properties":{"FID":89,"OBJECTID":90,"WEB_URL":"http://www.melrosehoteldc.com/","PHONE":"202-955-6400","ZIP":"20037","ADDRESS":"2430 PENNSYLVANIA AVENUE NW","NUMROOMS":"277","NAME":"MELROSE HOTEL","X":395430.70000000001,"Y":137240.97,"ADDRID":279592,"myHotelId":"89","h_d5m_ID":"64","h_d10m_ID":"64","h_w5m_ID":"64","h_w10m_ID":"64","h_w15m_ID":"64","h_w20m_ID":"64","h_w30m_ID":"64"}},{"type":"Feature","id":90,"geometry":{"type":"Point","coordinates":[-77.026723975507764,38.904379536277702]},"properties":{"FID":90,"OBJECTID":91,"WEB_URL":"http://www.morrisonclark.com/","PHONE":"202-898-1200","ZIP":"20001","ADDRESS":"1015 L STREET NW","NUMROOMS":"114","NAME":"MORRISON-CLARK INN","X":397682.20000000001,"Y":137390.94,"ADDRID":239355,"myHotelId":"90","h_d5m_ID":"105","h_d10m_ID":"105","h_w5m_ID":"105","h_w10m_ID":"105","h_w15m_ID":"105","h_w20m_ID":"105","h_w30m_ID":"105"}},{"type":"Feature","id":91,"geometry":{"type":"Point","coordinates":[-77.026793445603914,38.972073445217461]},"properties":{"FID":91,"OBJECTID":92,"WEB_URL":"http://www.motel6.com/reservations/motel_detail.aspx?num=4063","PHONE":"202-722-1600","ZIP":"20012","ADDRESS":"6711 GEORGIA AVENUE NW","NUMROOMS":"72","NAME":"MOTEL 6 WASHINGTON DC","X":397678.38,"Y":144905.56,"ADDRID":285354,"myHotelId":"91","h_d5m_ID":"29","h_d10m_ID":"29","h_w5m_ID":"27","h_w10m_ID":"27","h_w15m_ID":"27","h_w20m_ID":"27","h_w30m_ID":"27"}},{"type":"Feature","id":92,"geometry":{"type":"Point","coordinates":[-76.997900279012441,38.910177014331119]},"properties":{"FID":92,"OBJECTID":93,"WEB_URL":" ","PHONE":"202-544-2000","ZIP":"20002","ADDRESS":"1345 4TH STREET NE","NUMROOMS":"33","NAME":"MOTEL 6 WASHINGTON DC/CONVENTION CENTER","X":400182.31,"Y":138034.17000000001,"ADDRID":66534,"myHotelId":"92","h_d5m_ID":"140","h_d10m_ID":"140","h_w5m_ID":"140","h_w10m_ID":"140","h_w15m_ID":"140","h_w20m_ID":"140","h_w30m_ID":"140"}},{"type":"Feature","id":93,"geometry":{"type":"Point","coordinates":[-77.023235052975721,38.895037620978961]},"properties":{"FID":93,"OBJECTID":94,"WEB_URL":"http://www.oakwood.com/corporate-apartments/furnished/US/DC/Washington/prop91.html","PHONE":"1-877-902-0832","ZIP":"20004","ADDRESS":"400 8TH STREET NW","NUMROOMS":" ","NAME":"OAKWOOD","X":397984.56,"Y":136353.82999999999,"ADDRID":238147,"myHotelId":"93","h_d5m_ID":"43","h_d10m_ID":"43","h_w5m_ID":"42","h_w10m_ID":"42","h_w15m_ID":"42","h_w20m_ID":"42","h_w30m_ID":"42"}},{"type":"Feature","id":94,"geometry":{"type":"Point","coordinates":[-77.053666693361535,38.922633323902176]},"properties":{"FID":94,"OBJECTID":95,"WEB_URL":"http://www.omnihotels.com/FindAHotel/WashingtonDCShoreham.aspx","PHONE":"202-234-0700","ZIP":"20008","ADDRESS":"2500 CALVERT STREET NW","NUMROOMS":"832","NAME":"OMNI SHOREHAM","X":395346.41999999998,"Y":139418.29000000001,"ADDRID":277165,"myHotelId":"94","h_d5m_ID":"27","h_d10m_ID":"27","h_w5m_ID":"25","h_w10m_ID":"25","h_w15m_ID":"25","h_w20m_ID":"25","h_w30m_ID":"25"}},{"type":"Feature","id":95,"geometry":{"type":"Point","coordinates":[-77.04972805298091,38.903378928066104]},"properties":{"FID":95,"OBJECTID":96,"WEB_URL":"http://www.thecirclehotel.com/","PHONE":"202-872-1680","ZIP":"20037","ADDRESS":"1 WASHINGTON CIRCLE NW","NUMROOMS":"151","NAME":"ONE WASHINGTON CIRCLE HOTEL","X":395686.79999999999,"Y":137280.70000000001,"ADDRID":242366,"myHotelId":"95","h_d5m_ID":"11","h_d10m_ID":"11","h_w5m_ID":"10","h_w10m_ID":"10","h_w15m_ID":"10","h_w20m_ID":"10","h_w30m_ID":"10"}},{"type":"Feature","id":96,"geometry":{"type":"Point","coordinates":[-77.051125988712556,38.905736261395596]},"properties":{"FID":96,"OBJECTID":97,"WEB_URL":"http://parkwashington.hyatt.com/en/hotel/home.html","PHONE":"202-789-1234","ZIP":"20037","ADDRESS":"1201 24TH STREET NW","NUMROOMS":"216","NAME":"PARK HYATT WASHINGTON","X":395565.69,"Y":137542.45000000001,"ADDRID":242765,"myHotelId":"96","h_d5m_ID":"65","h_d10m_ID":"65","h_w5m_ID":"65","h_w10m_ID":"65","h_w15m_ID":"65","h_w20m_ID":"65","h_w30m_ID":"65"}},{"type":"Feature","id":97,"geometry":{"type":"Point","coordinates":[-77.009480379114692,38.897092373887588]},"properties":{"FID":97,"OBJECTID":98,"WEB_URL":"http://www.phoenixparkhotel.com/","PHONE":"202-638-6900","ZIP":"20001","ADDRESS":"520 NORTH CAPITOL STREET NW","NUMROOMS":"149","NAME":"PHOENIX PARK HOTEL","X":399177.79999999999,"Y":136581.70999999999,"ADDRID":237156,"myHotelId":"97","h_d5m_ID":"132","h_d10m_ID":"132","h_w5m_ID":"132","h_w10m_ID":"132","h_w15m_ID":"132","h_w20m_ID":"132","h_w30m_ID":"132"}},{"type":"Feature","id":98,"geometry":{"type":"Point","coordinates":[-77.047564323530608,38.904739550146488]},"properties":{"FID":98,"OBJECTID":99,"WEB_URL":"http://www.marriott.com/hotels/travel/wasrw-renaissance-washington-dc-dupont-circle-hotel","PHONE":"202-775-0800","ZIP":"20037","ADDRESS":"1143 NEW HAMPSHIRE AVENUE NW","NUMROOMS":"346","NAME":"RENAISSANCE DUPONT CIRCLE","X":395874.56,"Y":137431.64000000001,"ADDRID":243210,"myHotelId":"98","h_d5m_ID":"10","h_d10m_ID":"10","h_w5m_ID":"8","h_w10m_ID":"8","h_w15m_ID":"8","h_w20m_ID":"8","h_w30m_ID":"8"}},{"type":"Feature","id":99,"geometry":{"type":"Point","coordinates":[-77.023690567743984,38.901835510532983]},"properties":{"FID":99,"OBJECTID":100,"WEB_URL":"http://www.marriott.com/hotels/travel/wasrb-renaissance-washington-dc-downtown-hotel/","PHONE":"202-898-9000","ZIP":"20001","ADDRESS":"999 9TH STREET NW","NUMROOMS":"807","NAME":"RENAISSANCE WASHINGTON DC DOWNTOWN","X":397945.23999999999,"Y":137108.45999999999,"ADDRID":218802,"myHotelId":"99","h_d5m_ID":"108","h_d10m_ID":"108","h_w5m_ID":"108","h_w10m_ID":"108","h_w15m_ID":"108","h_w20m_ID":"108","h_w30m_ID":"108"}},{"type":"Feature","id":100,"geometry":{"type":"Point","coordinates":[-77.032373388759368,38.904423419359659]},"properties":{"FID":100,"OBJECTID":101,"WEB_URL":"http://www.marriott.com/hotels/travel/wasdc-residence-inn-washington-dc-downtown/","PHONE":"202-898-1100","ZIP":"20005","ADDRESS":"1199 VERMONT AVENUE NW","NUMROOMS":"202","NAME":"RESIDENCE INN - DOWNTOWN","X":397192.17999999999,"Y":137395.97,"ADDRID":278914,"myHotelId":"100","h_d5m_ID":"91","h_d10m_ID":"91","h_w5m_ID":"91","h_w10m_ID":"91","h_w15m_ID":"91","h_w20m_ID":"91","h_w30m_ID":"91"}},{"type":"Feature","id":101,"geometry":{"type":"Point","coordinates":[-77.047323935692489,38.909417683930293]},"properties":{"FID":101,"OBJECTID":102,"WEB_URL":"http://www.marriott.com/hotels/travel/wasri-residence-inn-washington-dc-dupont-circle/","PHONE":"202-466-6800","ZIP":"20037","ADDRESS":"2120 P STREET NW","NUMROOMS":"107","NAME":"RESIDENCE INN - DUPONT CIRCLE","X":395895.67999999999,"Y":137950.94,"ADDRID":279547,"myHotelId":"101","h_d5m_ID":"71","h_d10m_ID":"71","h_w5m_ID":"71","h_w10m_ID":"71","h_w15m_ID":"71","h_w20m_ID":"71","h_w30m_ID":"71"}},{"type":"Feature","id":102,"geometry":{"type":"Point","coordinates":[-77.052248767806972,38.899855199130926]},"properties":{"FID":102,"OBJECTID":103,"WEB_URL":"http://www.marriott.com/hotels/travel/wasfg-residence-inn-washington-dc-foggy-bottom/","PHONE":"202-785-2000","ZIP":"20037","ADDRESS":"801 NEW HAMPSHIRE AVENUE NW","NUMROOMS":"103","NAME":"RESIDENCE INN - FOGGY BOTTOM","X":395467.92999999999,"Y":136889.66,"ADDRID":277506,"myHotelId":"102","h_d5m_ID":"5","h_d10m_ID":"5","h_w5m_ID":"5","h_w10m_ID":"5","h_w15m_ID":"5","h_w20m_ID":"5","h_w30m_ID":"5"}},{"type":"Feature","id":103,"geometry":{"type":"Point","coordinates":[-77.015932665781932,38.883621447557644]},"properties":{"FID":103,"OBJECTID":104,"WEB_URL":"http://www.marriott.com/hotels/travel/wascp-residence-inn-washington-dc-capitol/","PHONE":"202-484-8280","ZIP":"20024","ADDRESS":"333 E STREET SW","NUMROOMS":"233","NAME":"RESIDENCE INN CAPITOL","X":398617.82000000001,"Y":135086.41,"ADDRID":277584,"myHotelId":"103","h_d5m_ID":"124","h_d10m_ID":"124","h_w5m_ID":"124","h_w10m_ID":"124","h_w15m_ID":"124","h_w20m_ID":"124","h_w30m_ID":"124"}},{"type":"Feature","id":104,"geometry":{"type":"Point","coordinates":[-77.04907216510658,38.90452623927991]},"properties":{"FID":104,"OBJECTID":105,"WEB_URL":"http://www.ritzcarlton.com/en/Properties/WashingtonDC/Default.htm","PHONE":"202-835-0500","ZIP":"20037","ADDRESS":"1150 22ND STREET NW","NUMROOMS":"300","NAME":"RITZ-CARLTON","X":395743.76000000001,"Y":137408.03,"ADDRID":278889,"myHotelId":"104","h_d5m_ID":"18","h_d10m_ID":"18","h_w5m_ID":"16","h_w10m_ID":"16","h_w15m_ID":"16","h_w20m_ID":"16","h_w30m_ID":"16"}},{"type":"Feature","id":105,"geometry":{"type":"Point","coordinates":[-77.06170397406035,38.903219894297763]},"properties":{"FID":105,"OBJECTID":106,"WEB_URL":"http://www.ritzcarlton.com/en/Properties/Georgetown/Default.htm?mtid=marriott&locale=en_US&rn=","PHONE":"202-912-4100","ZIP":"20007","ADDRESS":"3100 SOUTH STREET NW","NUMROOMS":"86","NAME":"RITZ-CARLTON GEORGETOWN","X":394648,"Y":137263.67999999999,"ADDRID":300061,"myHotelId":"105","h_d5m_ID":"58","h_d10m_ID":"58","h_w5m_ID":"58","h_w10m_ID":"58","h_w15m_ID":"58","h_w20m_ID":"58","h_w30m_ID":"58"}},{"type":"Feature","id":106,"geometry":{"type":"Point","coordinates":[-77.05371414802228,38.901431358007621]},"properties":{"FID":106,"OBJECTID":107,"WEB_URL":"http://www.theriverinn.com/","PHONE":"202-337-7600","ZIP":"20037","ADDRESS":"924 25TH STREET NW","NUMROOMS":"125","NAME":"RIVER INN","X":395340.91999999998,"Y":137064.70000000001,"ADDRID":273930,"myHotelId":"106","h_d5m_ID":"62","h_d10m_ID":"62","h_w5m_ID":"62","h_w10m_ID":"62","h_w15m_ID":"62","h_w20m_ID":"62","h_w30m_ID":"62"}},{"type":"Feature","id":107,"geometry":{"type":"Point","coordinates":[-77.046284217026738,38.90591268159698]},"properties":{"FID":107,"OBJECTID":108,"WEB_URL":"http://www.stgregoryhotelwdc.com/","PHONE":"202-530-3600","ZIP":"20036","ADDRESS":"2033 M STREET NW","NUMROOMS":"155","NAME":"SAINT GREGORY","X":395985.65999999997,"Y":137561.81,"ADDRID":279520,"myHotelId":"107","h_d5m_ID":"66","h_d10m_ID":"66","h_w5m_ID":"66","h_w10m_ID":"66","h_w15m_ID":"66","h_w20m_ID":"66","h_w30m_ID":"66"}},{"type":"Feature","id":108,"geometry":{"type":"Point","coordinates":[-77.072756994051517,38.923315016931348]},"properties":{"FID":108,"OBJECTID":109,"WEB_URL":"http://www.savoysuites.com/","PHONE":"202-337-9700","ZIP":"20007","ADDRESS":"2505 WISCONSIN AVENUE NW","NUMROOMS":"150","NAME":"SAVOY SUITES HOTEL","X":393691.03999999998,"Y":139495.10999999999,"ADDRID":301508,"myHotelId":"108","h_d5m_ID":"53","h_d10m_ID":"53","h_w5m_ID":"52","h_w10m_ID":"52","h_w15m_ID":"52","h_w20m_ID":"52","h_w30m_ID":"52"}},{"type":"Feature","id":109,"geometry":{"type":"Point","coordinates":[-77.036098708818443,38.902112044726053]},"properties":{"FID":109,"OBJECTID":110,"WEB_URL":"http://www.starwoodhotels.com/stregis/property/overview/index.html?propertyID=193","PHONE":"202-638-2626","ZIP":"20006","ADDRESS":"923 16TH STREET NW","NUMROOMS":"182","NAME":"ST REGIS","X":396868.95000000001,"Y":137139.51000000001,"ADDRID":242334,"myHotelId":"109","h_d5m_ID":"88","h_d10m_ID":"88","h_w5m_ID":"88","h_w10m_ID":"88","h_w15m_ID":"88","h_w20m_ID":"88","h_w30m_ID":"88"}},{"type":"Feature","id":110,"geometry":{"type":"Point","coordinates":[-77.0475031928802,38.896389545418224]},"properties":{"FID":110,"OBJECTID":111,"WEB_URL":"http://www.stateplaza.com/","PHONE":"202-861-8200","ZIP":"20037","ADDRESS":"2117 E STREET NW","NUMROOMS":"460","NAME":"STATE PLAZA HOTEL","X":395879.38,"Y":136504.72,"ADDRID":242537,"myHotelId":"110","h_d5m_ID":"31","h_d10m_ID":"31","h_w5m_ID":"29","h_w10m_ID":"29","h_w15m_ID":"29","h_w20m_ID":"29","h_w30m_ID":"29"}},{"type":"Feature","id":111,"geometry":{"type":"Point","coordinates":[-77.039282717285474,38.914566138951805]},"properties":{"FID":111,"OBJECTID":112,"WEB_URL":"http://swannhouse.com/","PHONE":"202-265-4414","ZIP":"20009","ADDRESS":"1808 NEW HAMPSHIRE AVENUE NW","NUMROOMS":"12","NAME":"SWANN HOUSE LLC","X":396593.35999999999,"Y":138522.13,"ADDRID":241551,"myHotelId":"111","h_d5m_ID":"114","h_d10m_ID":"114","h_w5m_ID":"114","h_w10m_ID":"114","h_w15m_ID":"114","h_w20m_ID":"114","h_w30m_ID":"114"}},{"type":"Feature","id":112,"geometry":{"type":"Point","coordinates":[-77.039993281705947,38.907462188688086]},"properties":{"FID":112,"OBJECTID":113,"WEB_URL":"http://www.tabardinn.com/","PHONE":"202-785-1277","ZIP":"20036","ADDRESS":"1739 N STREET NW","NUMROOMS":"40","NAME":"TABARD INN","X":396531.39000000001,"Y":137733.56,"ADDRID":218468,"myHotelId":"112","h_d5m_ID":"94","h_d10m_ID":"94","h_w5m_ID":"94","h_w10m_ID":"94","h_w15m_ID":"94","h_w20m_ID":"94","h_w30m_ID":"94"}},{"type":"Feature","id":113,"geometry":{"type":"Point","coordinates":[-77.048480045964311,38.910303090624978]},"properties":{"FID":113,"OBJECTID":114,"WEB_URL":"http://www.thebaronhotel.com/","PHONE":"202-293-1888","ZIP":"20037","ADDRESS":"1523 22ND STREET NW","NUMROOMS":"53","NAME":"THE BARON HOTEL","X":395795.46000000002,"Y":138049.28,"ADDRID":225698,"myHotelId":"113","h_d5m_ID":"20","h_d10m_ID":"20","h_w5m_ID":"18","h_w10m_ID":"18","h_w15m_ID":"18","h_w20m_ID":"18","h_w30m_ID":"18"}},{"type":"Feature","id":114,"geometry":{"type":"Point","coordinates":[-76.991301504843435,38.935840789484871]},"properties":{"FID":114,"OBJECTID":115,"WEB_URL":"http://www.thedupontcollection.com/brookland.php","PHONE":"202-467-6777","ZIP":"20017","ADDRESS":"3742 12TH STREET NE","NUMROOMS":"9","NAME":"THE BROOKLAND INN","X":400754.35999999999,"Y":140883.10000000001,"ADDRID":30873,"myHotelId":"114","h_d5m_ID":"143","h_d10m_ID":"143","h_w5m_ID":"143","h_w10m_ID":"143","h_w15m_ID":"143","h_w20m_ID":"143","h_w30m_ID":"143"}},{"type":"Feature","id":115,"geometry":{"type":"Point","coordinates":[-77.046934082398678,38.906388243457556]},"properties":{"FID":115,"OBJECTID":116,"WEB_URL":"http://www.theconcordia.com/","PHONE":"202-557-2000","ZIP":"20036","ADDRESS":"1250 NEW HAMPSHIRE AVENUE NW","NUMROOMS":"121","NAME":"THE CONCORDIA","X":395929.32000000001,"Y":137614.63,"ADDRID":279009,"myHotelId":"115","h_d5m_ID":"73","h_d10m_ID":"73","h_w5m_ID":"73","h_w10m_ID":"73","h_w15m_ID":"73","h_w20m_ID":"73","h_w30m_ID":"73"}},{"type":"Feature","id":116,"geometry":{"type":"Point","coordinates":[-77.04372751171077,38.9113654282094]},"properties":{"FID":116,"OBJECTID":117,"WEB_URL":"https://www.doylecollection.com/hotels/the-dupont-circle-hotel","PHONE":"202-332-5251","ZIP":"20009","ADDRESS":"1604 19TH STREET NW","NUMROOMS":"6","NAME":"THE DUPONT AT THE CIRCLE","X":396207.71000000002,"Y":138167,"ADDRID":241038,"myHotelId":"116","h_d5m_ID":"80","h_d10m_ID":"80","h_w5m_ID":"80","h_w10m_ID":"80","h_w15m_ID":"80","h_w20m_ID":"80","h_w30m_ID":"80"}},{"type":"Feature","id":117,"geometry":{"type":"Point","coordinates":[-77.043094898817031,38.910477620755273]},"properties":{"FID":117,"OBJECTID":118,"WEB_URL":"http://www.doylecollection.com/locations/washington_dc_hotels/the_dupont_circle_hotel.aspx","PHONE":"202-483-6000","ZIP":"20036","ADDRESS":"1500 NEW HAMPSHIRE AVENUE NW","NUMROOMS":"327","NAME":"THE DUPONT CIRCLE HOTEL","X":396262.53000000003,"Y":138068.42000000001,"ADDRID":225560,"myHotelId":"117","h_d5m_ID":"78","h_d10m_ID":"78","h_w5m_ID":"78","h_w10m_ID":"78","h_w15m_ID":"78","h_w20m_ID":"78","h_w30m_ID":"78"}},{"type":"Feature","id":118,"geometry":{"type":"Point","coordinates":[-77.025400015781869,38.904434422264373]},"properties":{"FID":118,"OBJECTID":119,"WEB_URL":"http://eldonsuites.com/","PHONE":"202-540-5000","ZIP":"20001","ADDRESS":"933 L STREET NW","NUMROOMS":"50","NAME":"THE ELDON","X":397797.03999999998,"Y":137397,"ADDRID":239808,"myHotelId":"118","h_d5m_ID":"107","h_d10m_ID":"107","h_w5m_ID":"107","h_w10m_ID":"107","h_w15m_ID":"107","h_w20m_ID":"107","h_w30m_ID":"107"}},{"type":"Feature","id":119,"geometry":{"type":"Point","coordinates":[-77.036052294916132,38.91223915529855]},"properties":{"FID":119,"OBJECTID":120,"WEB_URL":" ","PHONE":"202-234-7800","ZIP":"20009","ADDRESS":"1627 16TH STREET NW","NUMROOMS":"39","NAME":"THE EMBASSY INN","X":396873.41999999998,"Y":138263.70000000001,"ADDRID":242291,"myHotelId":"119","h_d5m_ID":"116","h_d10m_ID":"116","h_w5m_ID":"116","h_w10m_ID":"116","h_w15m_ID":"116","h_w20m_ID":"116","h_w30m_ID":"116"}},{"type":"Feature","id":120,"geometry":{"type":"Point","coordinates":[-77.047024759511899,38.91049727474455]},"properties":{"FID":120,"OBJECTID":121,"WEB_URL":"http://www.starwoodhotels.com/luxury/property/overview/index.html?propertyID=245","PHONE":"202-293-2100","ZIP":"20008","ADDRESS":"2100 MASSACHUSETTS AVENUE NW","NUMROOMS":"259","NAME":"THE FAIRFAX AT EMBASSY ROW","X":395921.69,"Y":138070.76999999999,"ADDRID":225940,"myHotelId":"120","h_d5m_ID":"70","h_d10m_ID":"70","h_w5m_ID":"70","h_w10m_ID":"70","h_w15m_ID":"70","h_w20m_ID":"70","h_w30m_ID":"70"}},{"type":"Feature","id":121,"geometry":{"type":"Point","coordinates":[-77.051776447238083,38.90555724921915]},"properties":{"FID":121,"OBJECTID":122,"WEB_URL":"http://www.fairmont.com/washington/","PHONE":"202-429-2400","ZIP":"20037","ADDRESS":"2401 M STREET NW","NUMROOMS":"415","NAME":"THE FAIRMONT","X":395509.26000000001,"Y":137522.60999999999,"ADDRID":273950,"myHotelId":"121","h_d5m_ID":"61","h_d10m_ID":"61","h_w5m_ID":"61","h_w10m_ID":"61","h_w15m_ID":"61","h_w20m_ID":"61","h_w30m_ID":"61"}},{"type":"Feature","id":122,"geometry":{"type":"Point","coordinates":[-77.059923419721585,38.904796292506035]},"properties":{"FID":122,"OBJECTID":123,"WEB_URL":"http://thegrahamgeorgetown.com/","PHONE":"202-337-0900","ZIP":"20007","ADDRESS":"1075 THOMAS JEFFERSON STREET NW","NUMROOMS":"57","NAME":"THE GRAHAM GEORGETOWN","X":394802.56,"Y":137438.57000000001,"ADDRID":273855,"myHotelId":"122","h_d5m_ID":"57","h_d10m_ID":"57","h_w5m_ID":"57","h_w10m_ID":"57","h_w15m_ID":"57","h_w20m_ID":"57","h_w30m_ID":"57"}},{"type":"Feature","id":123,"geometry":{"type":"Point","coordinates":[-77.055532125676947,38.928162750099709]},"properties":{"FID":123,"OBJECTID":124,"WEB_URL":"http://kaloramaguesthouse.com/","PHONE":"202-588-8188","ZIP":"20008","ADDRESS":"2700 CATHEDRAL AVENUE NW","NUMROOMS":"11","NAME":"THE KALORAMA GUEST HOUSE","X":395185.03000000003,"Y":140032.20000000001,"ADDRID":284453,"myHotelId":"123","h_d5m_ID":"119","h_d10m_ID":"119","h_w5m_ID":"119","h_w10m_ID":"119","h_w15m_ID":"119","h_w20m_ID":"119","h_w30m_ID":"119"}},{"type":"Feature","id":124,"geometry":{"type":"Point","coordinates":[-77.010686040522231,38.895397435746602]},"properties":{"FID":124,"OBJECTID":125,"WEB_URL":"http://www.affinia.com/Washington-DC-Hotel.aspx?name=Liaison-Capitol-Hill","PHONE":"202-638-1616","ZIP":"20001","ADDRESS":"415 NEW JERSEY AVENUE NW","NUMROOMS":"343","NAME":"THE LIASON CAPITOL HILL","X":399073.19,"Y":136393.57000000001,"ADDRID":237162,"myHotelId":"124","h_d5m_ID":"129","h_d10m_ID":"129","h_w5m_ID":"129","h_w10m_ID":"129","h_w15m_ID":"129","h_w20m_ID":"129","h_w30m_ID":"129"}},{"type":"Feature","id":125,"geometry":{"type":"Point","coordinates":[-77.04592748681263,38.908391019415248]},"properties":{"FID":125,"OBJECTID":126,"WEB_URL":"http://omansion.com/hotel/","PHONE":"202-496-2000","ZIP":"20036","ADDRESS":"2020 O STREET NW","NUMROOMS":"49","NAME":"THE MANSION ON O STREET","X":396016.73999999999,"Y":137836.91,"ADDRID":243057,"myHotelId":"125","h_d5m_ID":"77","h_d10m_ID":"77","h_w5m_ID":"77","h_w10m_ID":"77","h_w15m_ID":"77","h_w20m_ID":"77","h_w30m_ID":"77"}},{"type":"Feature","id":126,"geometry":{"type":"Point","coordinates":[-77.039468871557915,38.904449704043245]},"properties":{"FID":126,"OBJECTID":127,"WEB_URL":"http://www.marriott.com/hotels/travel/wassh-the-mayflower-renaissance-washington-dc-hotel/","PHONE":"202-347-3000","ZIP":"20036","ADDRESS":"1127 CONNECTICUT AVENUE NW","NUMROOMS":"657","NAME":"THE MAYFLOWER RENAISSANCE HOTEL","X":396576.72999999998,"Y":137399.13,"ADDRID":241797,"myHotelId":"126","h_d5m_ID":"87","h_d10m_ID":"87","h_w5m_ID":"87","h_w10m_ID":"87","h_w15m_ID":"87","h_w20m_ID":"87","h_w30m_ID":"87"}},{"type":"Feature","id":127,"geometry":{"type":"Point","coordinates":[-77.047537991164845,38.917297732275735]},"properties":{"FID":127,"OBJECTID":128,"WEB_URL":"http://www.thenormandydc.com/","PHONE":"202-483-1350","ZIP":"20008","ADDRESS":"2118 WYOMING AVENUE NW","NUMROOMS":"75","NAME":"THE NORMANDY HOTEL","X":395877.57000000001,"Y":138825.70000000001,"ADDRID":235029,"myHotelId":"127","h_d5m_ID":"83","h_d10m_ID":"83","h_w5m_ID":"83","h_w10m_ID":"83","h_w15m_ID":"83","h_w20m_ID":"83","h_w30m_ID":"83"}},{"type":"Feature","id":128,"geometry":{"type":"Point","coordinates":[-77.042708449186833,38.903985084814856]},"properties":{"FID":128,"OBJECTID":129,"WEB_URL":"http://www.thequincy.com/","PHONE":"202-223-4320","ZIP":"20036","ADDRESS":"1823 L STREET NW","NUMROOMS":"99","NAME":"THE QUINCY HOTEL","X":396295.71000000002,"Y":137347.67999999999,"ADDRID":241297,"myHotelId":"128","h_d5m_ID":"67","h_d10m_ID":"67","h_w5m_ID":"67","h_w10m_ID":"67","h_w15m_ID":"67","h_w20m_ID":"67","h_w30m_ID":"67"}},{"type":"Feature","id":129,"geometry":{"type":"Point","coordinates":[-77.051139176365595,38.898079781385377]},"properties":{"FID":129,"OBJECTID":130,"WEB_URL":"http://www.remingtonatdtc.com/","PHONE":"202-223-4512","ZIP":"20037","ADDRESS":"601 24TH STREET NW","NUMROOMS":"52","NAME":"THE REMINGTON","X":395564.07000000001,"Y":136692.51999999999,"ADDRID":226087,"myHotelId":"129","h_d5m_ID":"32","h_d10m_ID":"32","h_w5m_ID":"30","h_w10m_ID":"30","h_w15m_ID":"30","h_w20m_ID":"30","h_w30m_ID":"30"}},{"type":"Feature","id":130,"geometry":{"type":"Point","coordinates":[-77.033438390397478,38.905323594345724]},"properties":{"FID":130,"OBJECTID":131,"WEB_URL":"http://www.starwoodhotels.com/westin/property/overview/index.html?propertyID=1761","PHONE":"202-429-1700","ZIP":"20005","ADDRESS":"1400 M STREET NW","NUMROOMS":"406","NAME":"THE WESTIN","X":397099.84000000003,"Y":137495.92999999999,"ADDRID":240254,"myHotelId":"130","h_d5m_ID":"25","h_d10m_ID":"25","h_w5m_ID":"23","h_w10m_ID":"23","h_w15m_ID":"23","h_w20m_ID":"23","h_w30m_ID":"23"}},{"type":"Feature","id":131,"geometry":{"type":"Point","coordinates":[-77.032347083450105,38.896500033431622]},"properties":{"FID":131,"OBJECTID":132,"WEB_URL":"http://washington.intercontinental.com/","PHONE":"202-628-9100","ZIP":"20004","ADDRESS":"1401 PENNSYLVANIA AVENUE NW","NUMROOMS":"375","NAME":"THE WILLARD INTER-CONTINENTAL","X":397194.15000000002,"Y":136516.41,"ADDRID":279129,"myHotelId":"131","h_d5m_ID":"42","h_d10m_ID":"42","h_w5m_ID":"41","h_w10m_ID":"41","h_w15m_ID":"41","h_w20m_ID":"41","h_w30m_ID":"41"}},{"type":"Feature","id":132,"geometry":{"type":"Point","coordinates":[-77.039711252816659,38.907426791996457]},"properties":{"FID":132,"OBJECTID":133,"WEB_URL":"http://www.topazhotel.com/","PHONE":"202-393-3000","ZIP":"20036","ADDRESS":"1733 N STREET NW","NUMROOMS":"99","NAME":"TOPAZ HOTEL","X":396555.84999999998,"Y":137729.62,"ADDRID":241760,"myHotelId":"132","h_d5m_ID":"93","h_d10m_ID":"93","h_w5m_ID":"93","h_w10m_ID":"93","h_w15m_ID":"93","h_w20m_ID":"93","h_w30m_ID":"93"}},{"type":"Feature","id":133,"geometry":{"type":"Point","coordinates":[-77.033393086690992,38.896962769110772]},"properties":{"FID":133,"OBJECTID":134,"WEB_URL":"http://www.wwashingtondc.com/","PHONE":"202-661-2400","ZIP":"20004","ADDRESS":"515 15TH STREET NW","NUMROOMS":"317","NAME":"W HOTEL","X":397103.42999999999,"Y":136567.81,"ADDRID":279820,"myHotelId":"133","h_d5m_ID":"39","h_d10m_ID":"39","h_w5m_ID":"38","h_w10m_ID":"38","h_w15m_ID":"38","h_w20m_ID":"38","h_w30m_ID":"38"}},{"type":"Feature","id":134,"geometry":{"type":"Point","coordinates":[-77.011100788615039,38.896817025558455]},"properties":{"FID":134,"OBJECTID":135,"WEB_URL":"http://washingtoncourthotel.com/","PHONE":"202-628-2100","ZIP":"20001","ADDRESS":"525 NEW JERSEY AVENUE NW","NUMROOMS":"265","NAME":"WASHINGTON COURT HOTEL","X":399037.22999999998,"Y":136551.16,"ADDRID":279827,"myHotelId":"134","h_d5m_ID":"133","h_d10m_ID":"133","h_w5m_ID":"133","h_w10m_ID":"133","h_w15m_ID":"133","h_w20m_ID":"133","h_w30m_ID":"133"}},{"type":"Feature","id":135,"geometry":{"type":"Point","coordinates":[-77.024206958150828,38.90328043512902]},"properties":{"FID":135,"OBJECTID":136,"WEB_URL":"http://www.marriott.com/hotels/travel/wasco-washington-marriott-marquis","PHONE":"202-962-4482","ZIP":"20001","ADDRESS":"901 MASSACHUSETTS AVENUE NW","NUMROOMS":"1175","NAME":"WASHINGTON MARRIOT MARQUIS","X":397900.48999999999,"Y":137268.87,"ADDRID":239811,"myHotelId":"135","h_d5m_ID":"109","h_d10m_ID":"109","h_w5m_ID":"109","h_w10m_ID":"109","h_w15m_ID":"109","h_w20m_ID":"109","h_w30m_ID":"109"}},{"type":"Feature","id":136,"geometry":{"type":"Point","coordinates":[-77.048492280563565,38.906082674392238]},"properties":{"FID":136,"OBJECTID":137,"WEB_URL":"http://www.marriott.com/hotels/travel/waswe-washington-marriott/","PHONE":"202-872-1500","ZIP":"20037","ADDRESS":"1221 22ND STREET NW","NUMROOMS":"470","NAME":"WASHINGTON MARRIOTT","X":395794.15000000002,"Y":137580.78,"ADDRID":300163,"myHotelId":"136","h_d5m_ID":"63","h_d10m_ID":"63","h_w5m_ID":"63","h_w10m_ID":"63","h_w15m_ID":"63","h_w20m_ID":"63","h_w30m_ID":"63"}},{"type":"Feature","id":137,"geometry":{"type":"Point","coordinates":[-77.054701090175968,38.924724036362598]},"properties":{"FID":137,"OBJECTID":138,"WEB_URL":"http://www.marriott.com/hotels/travel/wasdt-washington-marriott-wardman-park/","PHONE":"202-328-2000","ZIP":"20008","ADDRESS":"2660 WOODLEY ROAD NW","NUMROOMS":"1300","NAME":"WASHINGTON MARRIOTT WARDMAN PARK","X":395256.85999999999,"Y":139650.42999999999,"ADDRID":284450,"myHotelId":"137","h_d5m_ID":"118","h_d10m_ID":"118","h_w5m_ID":"118","h_w10m_ID":"118","h_w15m_ID":"118","h_w20m_ID":"118","h_w30m_ID":"118"}},{"type":"Feature","id":138,"geometry":{"type":"Point","coordinates":[-77.030976190565056,38.906259790439194]},"properties":{"FID":138,"OBJECTID":139,"WEB_URL":"http://www.washingtonplazahotel.com/","PHONE":"202-842-1300","ZIP":"20005","ADDRESS":"10 THOMAS CIRCLE NW","NUMROOMS":"355","NAME":"WASHINGTON PLAZA","X":397313.44,"Y":137599.78,"ADDRID":298252,"myHotelId":"138","h_d5m_ID":"98","h_d10m_ID":"98","h_w5m_ID":"98","h_w10m_ID":"98","h_w15m_ID":"98","h_w20m_ID":"98","h_w30m_ID":"98"}},{"type":"Feature","id":139,"geometry":{"type":"Point","coordinates":[-77.051096969629626,38.904979482354015]},"properties":{"FID":139,"OBJECTID":140,"WEB_URL":"http://www.starwoodhotels.com/westin/property/overview/index.html?propertyID=1013","PHONE":"202-429-0100","ZIP":"20037","ADDRESS":"2350 M STREET NW","NUMROOMS":"267","NAME":"WESTIN GEORGETOWN","X":395568.15999999997,"Y":137458.44,"ADDRID":242338,"myHotelId":"139","h_d5m_ID":"19","h_d10m_ID":"19","h_w5m_ID":"17","h_w10m_ID":"17","h_w15m_ID":"17","h_w20m_ID":"17","h_w30m_ID":"17"}},{"type":"Feature","id":140,"geometry":{"type":"Point","coordinates":[-77.030116222050168,38.912801154964434]},"properties":{"FID":140,"OBJECTID":141,"WEB_URL":"http://www.wlewishous.com/","PHONE":"202-462-7574","ZIP":"20009","ADDRESS":"1309 R STREET NW","NUMROOMS":"10","NAME":"WILLIAM LEWIS HOUSE BED & BREAKFAST","X":397388.27000000002,"Y":138325.89999999999,"ADDRID":240527,"myHotelId":"140","h_d5m_ID":"115","h_d10m_ID":"115","h_w5m_ID":"115","h_w10m_ID":"115","h_w15m_ID":"115","h_w20m_ID":"115","h_w30m_ID":"115"}},{"type":"Feature","id":141,"geometry":{"type":"Point","coordinates":[-77.036948158091548,38.915294413785027]},"properties":{"FID":141,"OBJECTID":142,"WEB_URL":"http://www.windsor-inn-hotel-dc.com/","PHONE":"202-667-0300","ZIP":"20009","ADDRESS":"1842 16TH STREET NW","NUMROOMS":"58","NAME":"WINDSOR INN","X":396795.85999999999,"Y":138602.89000000001,"ADDRID":241907,"myHotelId":"141","h_d5m_ID":"112","h_d10m_ID":"112","h_w5m_ID":"112","h_w10m_ID":"112","h_w15m_ID":"112","h_w20m_ID":"112","h_w30m_ID":"112"}},{"type":"Feature","id":142,"geometry":{"type":"Point","coordinates":[-77.048551229415764,38.918159142832451]},"properties":{"FID":142,"OBJECTID":143,"WEB_URL":"http://www.windsorparkhotel.com/","PHONE":"202-483-7700","ZIP":"20008","ADDRESS":"2116 KALORAMA ROAD NW","NUMROOMS":"43","NAME":"WINDSOR PARK HOTEL","X":395789.75,"Y":138921.37,"ADDRID":234981,"myHotelId":"142","h_d5m_ID":"84","h_d10m_ID":"84","h_w5m_ID":"84","h_w10m_ID":"84","h_w15m_ID":"84","h_w20m_ID":"84","h_w30m_ID":"84"}},{"type":"Feature","id":143,"geometry":{"type":"Point","coordinates":[-77.053737290476505,38.92587628734708]},"properties":{"FID":143,"OBJECTID":144,"WEB_URL":"http://www.dcinns.com/woodley.html","PHONE":"202-667-0218","ZIP":"20008","ADDRESS":"2647 WOODLEY ROAD NW","NUMROOMS":"15","NAME":"WOODLEY PARK GUEST HOUSE","X":395340.51000000001,"Y":139778.29000000001,"ADDRID":219986,"myHotelId":"143","h_d5m_ID":"117","h_d10m_ID":"117","h_w5m_ID":"117","h_w10m_ID":"117","h_w15m_ID":"117","h_w20m_ID":"117","h_w30m_ID":"117"}}]}